     3.02           OBSERVATION DATA    M: Mixed            RINEX VERSION / TYPE
CONVBIN 2.4.3                           20220826 040041 UTC PGM / RUN BY / DATE 
format: BINEX                                               COMMENT             
log: C:\ProjectFlutter\C#\KDT-DataConverter\2022-08-25_17-37COMMENT             
3333                                                        MARKER NAME         
3333                                                        MARKER NUMBER       
RG-CORS                                                     MARKER TYPE         
KKFC                KKFC                                    OBSERVER / AGENCY   
6037C01431          TRIMBLE BD990       5.41,24/APR/2019    REC # / TYPE / VERS 
tty                 C220GR2                                 ANT # / TYPE        
 -3737557.3413  3681865.6930  3614920.4318                  APPROX POSITION XYZ 
        3.1210        0.0000        0.0000                  ANTENNA: DELTA H/E/N
G   16 C1C L1C D1C S1C C2W L2W D2W S2W C2X L2X D2X S2X C5X  SYS / # / OBS TYPES 
       L5X D5X S5X                                          SYS / # / OBS TYPES 
R   16 C1C L1C D1C S1C C1P L1P D1P S1P C2P L2P D2P S2P C2C  SYS / # / OBS TYPES 
       L2C D2C S2C                                          SYS / # / OBS TYPES 
E   20 C1X L1X D1X S1X C7X L7X D7X S7X C5X L5X D5X S5X C6X  SYS / # / OBS TYPES 
       L6X D6X S6X C8X L8X D8X S8X                          SYS / # / OBS TYPES 
J   16 C1C L1C D1C S1C C1Z L1Z D1Z S1Z C2X L2X D2X S2X C5X  SYS / # / OBS TYPES 
       L5X D5X S5X                                          SYS / # / OBS TYPES 
C   12 C1I L1I D1I S1I C7I L7I D7I S7I C6I L6I D6I S6I      SYS / # / OBS TYPES 
     1.000                                                  INTERVAL            
  2022    08    25    08    37   19.0000000     GPS         TIME OF FIRST OBS   
  2022    08    25    08    38   21.0000000     GPS         TIME OF LAST OBS    
G L1C                                                       SYS / PHASE SHIFT   
G L2W  0.00000                                              SYS / PHASE SHIFT   
G L2X  0.00000                                              SYS / PHASE SHIFT   
G L5X  0.00000                                              SYS / PHASE SHIFT   
R L1C                                                       SYS / PHASE SHIFT   
R L1P  0.00000                                              SYS / PHASE SHIFT   
R L2P  0.00000                                              SYS / PHASE SHIFT   
R L2C                                                       SYS / PHASE SHIFT   
E L1X  0.00000                                              SYS / PHASE SHIFT   
E L7X  0.00000                                              SYS / PHASE SHIFT   
E L5X  0.00000                                              SYS / PHASE SHIFT   
E L6X  0.00000                                              SYS / PHASE SHIFT   
E L8X  0.00000                                              SYS / PHASE SHIFT   
J L1C                                                       SYS / PHASE SHIFT   
J L1Z  0.00000                                              SYS / PHASE SHIFT   
J L2X  0.00000                                              SYS / PHASE SHIFT   
J L5X  0.00000                                              SYS / PHASE SHIFT   
C L1I                                                       SYS / PHASE SHIFT   
C L7I                                                       SYS / PHASE SHIFT   
C L6I                                                       SYS / PHASE SHIFT   
  4 R03  5 R04  6 R05  1 R14 -7                             GLONASS SLOT / FRQ #
 C1C    0.000 C1P    0.000 C2C    0.000 C2P    0.000        GLONASS COD/PHS/BIS 
                                                            END OF HEADER       
> 2022 08 25 08 37 19.0000000  0 30                     
G23  20934503.008   110011652.6201       1888.949          46.400    20934509.836    85723332.4441       1471.910          39.900    20934509.758    85723325.4411       1471.910          49.500    20934512.023    82151507.3181       1410.578          41.400  
G18  22404029.758   117734091.6771      -2398.492          42.400    22404038.117    91740766.3971      -1868.953          31.200    22404037.852    91740773.4051      -1868.953          44.300    22404038.102    87918238.2481      -1791.082          36.400  
R04  19899100.359   106558831.5811        212.797          51.600    19899098.926   106558888.5961        212.797          49.600    19899104.910    82879084.9161        165.508          50.700    19899105.281    82879100.9131        165.508          51.000  
C13  36283262.258   188936528.4101       -548.910          48.200    36283265.238   146097693.4391       -424.449          47.600    36283256.520   153526350.2341       -446.035          46.100  
C06  37024849.938   192798181.7561        119.895          42.800    37024846.281   149083762.4841         92.711          46.500    37024838.516   156664254.9401         97.426          42.800  
R03  22159328.438   118620850.6711      -2224.914          44.800    22159327.387   118620858.6861      -2224.914          43.900    22159335.813    92260583.9651      -1730.488          42.300    22159336.211    92260543.9661      -1730.488          42.700  
C16  36982687.906   192578590.1821          5.133          45.600    36982689.426   148914032.7001          3.969          45.700    36982680.250   156485881.4291          4.172          42.900  
C38  36553689.789   190344650.1831      -1206.879          49.000                                                                    36553681.449   154670589.8051       -980.688          47.600  
C09  38660467.297   201315253.0851        143.523          38.800    38660465.582   155669709.8211        110.980          42.300    38660456.398   163585081.3871        116.625          39.200  
R14  19652760.438   104760420.6851       -638.414          52.600    19652758.098   104760463.6871       -638.414          51.200    19652766.527    81480265.1661       -496.543          50.800    19652766.094    81480251.1731       -496.543          50.800  
J07  37152775.047   195239126.2601          0.051          40.600    37152768.289   195239204.4221          0.051          46.400    37152781.609   152134450.5761          0.043          47.800    37152781.340   145795502.9531          0.039          40.900  
J02  37092879.367   194924355.7431        174.270          44.200    37092874.512   194924453.7681        174.270          44.000    37092887.777   151889186.6631        135.797          47.200    37092887.727   145560445.3851        130.137          40.000  
J04  38165902.445   200563146.2061        607.035          48.400    38165897.883   200563150.7491        607.035          50.700    38165909.078   156283024.1951        473.016          52.500    38165908.000   149771197.5981        453.305          43.600  
C41  22173948.477   115465647.8291       -832.086          49.800                                                                    22173948.012    93825316.0751       -676.141          49.500  
R15  20554659.945                        3324.156          51.800    20554658.184                        3324.156          49.300    20554666.129                        2585.453          46.500    20554665.570                        2585.453          46.800  
G24  19823725.125   104174366.0991       -251.363          51.800    19823734.617    81174930.3521       -195.867          56.100    19823734.809    81174929.3571       -195.867          52.800    19823732.137    77792609.1561       -187.707          46.400  
G05  23697984.883   124533755.6571      -3391.770          38.800    23697993.445    97039327.6581      -2642.938          26.900    23697994.633    97039331.6571      -2642.938          38.900                                                                  
G15  21047174.750   110603678.6171      -1502.035          49.000    21047181.609    86184804.6871      -1170.418          42.800    21047181.813    86184811.6831      -1170.418          46.900                                                                  
C39  36617708.922   190678168.5871        -26.551          47.800                                                                    36617699.613   154941531.1201        -21.574          49.300  
R05  21444314.867   114632287.6541       2584.637          38.400    21444313.473   114632083.6571       2584.637          37.000    21444321.434    89158364.6361       2010.273          39.600    21444321.410    89158364.6291       2010.273          40.200  
G12  23327222.563   122585243.7731       3334.617          35.800    23327229.531    95521123.2501       2598.402          21.500    23327230.055    95521118.2361       2598.402          36.300                                                                  
C33  25915640.859   134949587.5841      -2519.098          34.600                                                                    25915645.332   109657556.7521      -2046.973          35.000  
E25  24980041.211   131271051.5881       1979.258          47.800    24980046.660   100584344.4921       1516.574          50.100    24980047.277    98027110.0491       1478.016          38.300    24980036.801   106551169.4111       1606.539          48.600    24980048.008    99305736.0721       1497.293          51.300  
C23  22181827.992   115506760.6731       1212.723          50.800                                                                    22181810.402    93858573.7471        985.438          50.500  
C32  22813182.172   118794245.6151       1748.109          49.200                                                                    22813173.637    96529997.6191       1420.480          48.700  
E24  25934551.031   136287043.2591       -709.133          46.200    25934553.551   104427772.7201       -543.359          44.300    25934554.680   101772785.5241       -529.547          34.000    25934546.746   110622602.7771       -575.594          43.100    25934555.695   103100300.4291       -536.453          45.100  
E15  25560530.328   134321482.1871      -1524.852          43.600    25560536.051   102921673.0561      -1168.391          46.500    25560536.266   100304988.3851      -1138.688          37.000    25560527.160   109027152.7891      -1237.703          44.800    25560537.832   101613336.0211      -1153.539          47.900  
C25  23141568.898   120504301.3171      -1766.008          47.000                                                                    23141558.590    97919572.8091      -1435.027          47.300  
E03  24130849.352   126808524.2641        709.961          50.800    24130853.645    97165021.3181        543.996          53.800    24130853.465    94694688.4721        530.164          43.200    24130844.348   102929014.9101        576.266          50.700    24130854.906    95929896.1961        537.082          55.200  
E05  24767096.055   130151998.6591      -1071.082          48.200    24767100.578    99726909.3901       -820.699          49.700    24767100.496    97191460.3761       -799.832          39.700    24767091.285   105642844.4211       -869.383          47.900    24767102.270    98459209.6841       -810.266          50.900  
> 2022 08 25 08 37 20.0000000  0 30                     
G23  20934143.547   110009763.652        1888.738          47.000    20934150.375    85721860.518        1471.746          40.400    20934150.125    85721853.519        1471.746          49.600    20934152.590    82150096.726        1410.422          41.400  
G18  22404486.164   117736490.133       -2398.664          42.400    22404494.395    91742635.326       -1869.086          31.800    22404494.461    91742642.326       -1869.086          44.300    22404494.512    87920029.301       -1791.211          36.000  
R04  19899060.602   106558618.698         212.680          51.800    19899059.246   106558675.711         212.680          49.900    19899065.125    82878919.338         165.418          50.500    19899065.457    82878935.335         165.418          51.300  
C13  36283367.633   188937077.134        -548.816          48.200    36283370.633   146098117.747        -424.379          47.500    36283361.879   153526796.120        -445.957          46.300  
C06  37024826.875   192798061.647         120.109          42.600    37024823.383   149083669.608          92.875          46.000    37024815.418   156664157.343          97.598          42.600  
R03  22159744.055   118623075.500       -2224.891          45.000    22159742.898   118623083.516       -2224.891          44.100    22159751.367    92262314.381       -1730.469          42.300    22159751.629    92262274.383       -1730.469          42.700  
C16  36982686.867   192578584.787           5.379          45.200    36982688.602   148914028.529           4.156          46.000    36982679.230   156485877.045           4.371          42.500  
C38  36553921.516   190345856.848       -1206.723          48.800                                                                    36553913.105   154671570.318        -980.563          47.600  
C09  38660439.695   201315109.391         143.594          38.600    38660438.094   155669598.712         111.035          42.400    38660428.719   163584964.628         116.684          39.400  
R14  19652880.234   104761059.296        -639.051          52.800    19652878.086   104761102.301        -639.051          50.800    19652886.363    81480761.865        -497.039          50.300    19652885.691    81480747.868        -497.039          50.800  
J07  37152775.000   195239126.017           0.254          40.400    37152768.246   195239204.179           0.254          46.300    37152781.590   152134450.386           0.199          47.800    37152781.262   145795502.774           0.188          40.800  
J02  37092846.164   194924181.303         174.414          44.600    37092841.367   194924279.327         174.414          44.100    37092854.582   151889050.737         135.906          47.500    37092854.586   145560315.124         130.242          39.600  
J04  38165786.875   200562538.887         607.359          47.800    38165782.445   200562543.430         607.359          50.600    38165793.418   156282550.958         473.266          52.500    38165792.406   149770744.081         453.547          43.800  
C41  22174108.250   115466479.820        -832.141          49.800                                                                    22174107.785    93825992.136        -676.184          49.700  
R15  20554037.883                        3323.863          51.200    20554036.223                        3323.863          49.500    20554044.086                        2585.227          46.500    20554043.602                        2585.227          47.000  
G24  19823772.969   104174617.533        -251.680          51.600    19823782.477    81175126.274        -196.113          55.900    19823782.652    81175125.281        -196.113          52.700    19823779.965    77792796.915        -187.941          46.200  
G05  23698630.289   124537147.252       -3391.742          38.800    23698638.762    97041970.447       -2642.918          26.000    23698639.848    97041974.453       -2642.918          38.700                                                                  
G15  21047460.563   110605180.558       -1502.070          49.000    21047467.188    86185975.027       -1170.445          42.800    21047467.598    86185982.024       -1170.445          47.000                                                                  
C39  36617713.969   190678194.867         -26.309          48.000                                                                    36617704.703   154941552.473         -21.375          49.600  
R05  21443831.320   114629702.790        2584.816          38.400    21443829.844   114629498.800        2584.816          37.400    21443837.805    89156354.185        2010.414          39.300    21443837.836    89156354.176        2010.414          40.300  
G12  23326587.969   122581909.008        3334.789          35.400    23326595.043    95518524.729        2598.539          20.400    23326595.523    95518519.721        2598.539          36.100                                                                  
C33  25916124.570   134952106.370       -2518.793          34.800                                                                    25916129.023   109659603.467       -2046.727          35.200  
E25  24979664.555   131269072.236        1979.188          48.200    24979670.063   100582827.846        1516.520          49.700    24979670.555    98025631.959        1477.965          38.100    24979660.289   106549562.794        1606.484          48.400    24979671.336    99304238.706        1497.242          51.000  
C23  22181595.102   115505547.969        1212.477          50.400                                                                    22181577.508    93857588.324         985.238          50.600  
C32  22812846.430   118792497.337        1748.184          49.400                                                                    22812837.898    96528576.997        1420.543          48.700  
E24  25934685.961   136287752.313        -709.309          46.000    25934688.477   104428316.021        -543.496          44.400    25934689.535   101773315.010        -529.676          34.200    25934681.574   110623178.309        -575.734          43.300    25934690.633   103100836.823        -536.586          45.300  
E15  25560820.477   134323006.918       -1524.922          43.600    25560826.230   102922841.357       -1168.445          46.900    25560826.449   100306126.985       -1138.742          37.200    25560817.250   109028390.397       -1237.762          44.900    25560828.008   101614489.472       -1153.594          48.200  
C25  23141908.031   120506067.306       -1766.172          46.800                                                                    23141897.750    97921007.823       -1435.160          47.600  
E03  24130714.195   126807814.035         710.230          50.800    24130718.430    97164477.116         544.203          54.300    24130718.285    94694158.106         530.367          43.100    24130709.195   102928438.424         576.484          50.700    24130719.746    95929358.911         537.285          55.800  
E05  24767299.828   130153069.499       -1070.863          48.400    24767304.285    99727729.901        -820.531          49.800    24767304.336    97192260.028        -799.672          39.500    24767295.008   105643713.608        -869.207          47.900    24767306.020    98460019.766        -810.102          51.000  
> 2022 08 25 08 37 21.0000000  0 30                     
G23  20933784.188   110007875.204        1888.094          46.800    20933791.141    85720389.002        1471.242          40.700    20933790.914    85720382.000        1471.242          49.900    20933793.219    82148686.522        1409.938          41.200  
G18  22404942.672   117738889.050       -2399.266          42.000    22404950.898    91744504.608       -1869.559          30.800    22404950.789    91744511.610       -1869.559          44.700    22404950.945    87921820.694       -1791.660          35.800  
R04  19899020.930   106558406.236         212.105          52.000    19899019.410   106558463.247         212.105          50.000    19899025.406    82878754.086         164.969          50.700    19899025.813    82878770.083         164.969          51.500  
C13  36283473.063   188937626.108        -549.176          48.400    36283475.977   146098542.248        -424.656          47.400    36283467.410   153527242.201        -446.250          46.400  
C06  37024803.828   192797941.622         119.883          42.400    37024800.191   149083576.796          92.703          46.000    37024792.348   156664059.807          97.414          42.600  
R03  22160159.742   118625300.696       -2225.492          44.600    22160158.551   118625308.706       -2225.492          43.700    22160167.023    92264045.083       -1730.941          42.700    22160167.203    92264005.085       -1730.941          42.900  
C16  36982685.844   192578579.470           5.191          45.400    36982687.547   148914024.419           4.016          46.100    36982678.184   156485872.728           4.219          42.900  
C38  36554153.281   190347063.730       -1207.105          49.400                                                                    36554144.922   154672551.008        -980.871          47.800  
C09  38660412.125   201314965.807         143.496          38.200    38660410.605   155669487.684         110.961          42.900    38660401.082   163584847.953         116.602          39.800  
R14  19653000.219   104761698.876        -640.168          52.800    19652997.918   104761741.878        -640.168          50.800    19653006.234    81481259.316        -497.906          50.700    19653005.941    81481245.319        -497.906          50.400  
J07  37152774.961   195239125.833           0.051          40.200    37152768.016   195239203.996           0.051          46.300    37152781.699   152134450.245           0.039          48.000    37152781.305   145795502.639           0.039          40.500  
J02  37092812.992   194924006.986         174.129          44.200    37092808.117   194924105.012         174.129          44.100    37092821.652   151888914.906         135.684          47.400    37092821.457   145560184.954         130.031          39.600  
J04  38165671.313   200561931.607         607.125          47.600    38165667.070   200561936.150         607.125          50.700    38165677.875   156282077.751         473.086          52.700    38165676.887   149770290.592         453.371          44.100  
C41  22174268.094   115467312.189        -832.680          49.800                                                                    22174267.715    93826668.503        -676.621          49.600  
R15  20553415.938                        3323.027          51.400    20553414.371                        3323.027          49.100    20553422.176                        2584.578          46.400    20553421.801                        2584.578          47.200  
G24  19823820.930   104174869.581        -252.453          52.200    19823830.438    81175322.676        -196.719          55.900    19823830.633    81175321.682        -196.719          53.100    19823827.871    77792985.135        -188.520          46.300  
G05  23699275.734   124540539.109       -3392.098          39.200    23699284.258    97044613.457       -2643.191          25.800    23699285.445    97044617.454       -2643.191          38.400                                                                  
G15  21047746.430   110606682.811       -1502.539          48.800    21047753.258    86187145.611       -1170.809          43.300    21047753.262    86187152.608       -1170.809          47.200                                                                  
C39  36617719.023   190678221.217         -26.500          48.400                                                                    36617709.730   154941573.883         -21.531          49.600  
R05  21443347.789   114627118.046        2584.645          38.800    21443346.516   114626914.043        2584.645          37.200    21443354.246    89154343.826        2010.281          39.200    21443354.285    89154343.820        2010.281          40.300  
G12  23325953.414   122578574.455        3334.371          35.200    23325960.711    95515926.374        2598.211          21.100    23325960.957    95515921.373        2598.211          36.500                                                                  
C33  25916608.320   134954625.394       -2519.324          34.600                                                                    25916612.738   109661650.370       -2047.160          35.200  
E25  24979287.969   131267093.283        1978.609          48.400    24979293.430   100581311.504        1516.078          49.700    24979294.027    98024154.173        1477.535          38.600    24979283.781   106547956.500        1606.016          48.600    24979294.746    99302741.641        1496.805          51.000  
C23  22181362.320   115504335.820        1211.711          50.800                                                                    22181344.730    93856603.354         984.613          50.300  
C32  22812510.742   118790749.306        1747.770          49.400                                                                    22812502.250    96527156.575        1420.207          49.100  
E24  25934820.992   136288461.887        -710.004          45.600    25934823.504   104428859.720        -544.027          44.700    25934824.559   101773844.886        -530.199          34.500    25934816.738   110623754.260        -576.301          43.500    25934825.672   103101373.611        -537.113          45.600  
E15  25561110.703   134324532.092       -1525.422          43.400    25561116.414   102924009.997       -1168.832          47.400    25561116.582   100307265.914       -1139.113          37.200    25561107.500   109029628.360       -1238.168          44.800    25561118.234   101615643.255       -1153.973          48.200  
C25  23142247.266   120507833.771       -1766.852          46.800                                                                    23142237.000    97922443.217       -1435.711          47.500  
E03  24130579.070   126807103.940         709.914          51.000    24130583.344    97163933.018         543.961          53.900    24130583.141    94693627.842         530.129          43.500    24130573.953   102927862.049         576.230          51.200    24130584.641    95928821.731         537.047          55.500  
E05  24767503.633   130154140.485       -1071.191          48.200    24767508.070    99728550.525        -820.781          49.900    24767508.055    97193059.788        -799.914          39.700    24767498.801   105644582.912        -869.473          48.000    24767509.828    98460829.958        -810.348          51.200  
> 2022 08 25 08 37 22.0000000  0 30                     
G23  20933424.891   110005987.133        1887.832          46.800    20933431.785    85718917.781        1471.035          40.700    20933431.391    85718910.776        1471.035          50.100    20933433.852    82147276.601        1409.742          41.500  
G18  22405399.227   117741288.272       -2399.508          42.600    22405407.344    91746374.127       -1869.746          31.100    22405407.340    91746381.136       -1869.746          45.100    22405407.504    87923612.320       -1791.840          36.200  
R04  19898981.305   106558194.041         212.016          52.200    19898980.117   106558251.054         212.016          49.600    19898985.816    82878589.047         164.902          50.700    19898985.980    82878605.043         164.902          51.600  
C13  36283578.500   188938175.207        -549.207          48.600    36283581.457   146098966.845        -424.684          47.000    36283572.777   153527688.389        -446.277          46.600  
C06  37024780.766   192797821.550         120.039          42.000    37024776.988   149083483.949          92.824          45.800    37024769.258   156663962.239          97.543          42.900  
R03  22160575.469   118627526.100       -2225.563          44.800    22160574.598   118627534.113       -2225.563          43.900    22160582.621    92265775.952       -1730.992          42.600    22160583.043    92265735.954       -1730.992          43.400  
C16  36982684.805   192578574.088           5.348          45.600    36982686.566   148914020.258           4.137          46.100    36982677.125   156485868.357           4.344          42.900  
C38  36554385.070   190348270.700       -1207.059          49.600                                                                    36554376.695   154673531.770        -980.836          47.600  
C09  38660384.539   201314822.186         143.625          38.400    38660382.898   155669376.626         111.059          42.800    38660373.672   163584731.254         116.707          39.600  
R14  19653120.352   104762339.261        -640.840          52.800    19653118.320   104762382.264        -640.840          50.700    19653126.430    81481757.395        -498.430          50.400    19653126.465    81481743.399        -498.430          50.600  
J07  37152774.914   195239125.572           0.246          40.200    37152767.820   195239203.737           0.246          46.200    37152781.719   152134450.041           0.191          48.300    37152781.230   145795502.444           0.184          40.900  
J02  37092779.820   194923832.660         174.258          44.600    37092774.922   194923930.687         174.258          43.900    37092788.496   151888779.071         135.785          47.000    37092788.313   145560054.777         130.125          39.200  
J04  38165555.734   200561324.225         607.383          47.600    38165551.238   200561328.767         607.383          50.300    38165562.129   156281604.468         473.285          52.700    38165561.324   149769837.028         453.563          43.900  
C41  22174427.984   115468144.794        -832.797          49.400                                                                    22174427.520    93827345.064        -676.715          49.800  
R15  20552794.078                        3322.688          51.400    20552792.723                        3322.688          49.300    20552800.254                        2584.313          46.300    20552799.969                        2584.313          46.900  
G24  19823868.977   104175122.113        -252.770          52.000    19823878.508    81175519.454        -196.965          56.100    19823878.828    81175518.461        -196.965          53.200    19823875.934    77793173.714        -188.758          46.500  
G05  23699921.219   124543931.105       -3392.145          39.800    23699929.813    97047256.567       -2643.230          25.600    23699930.977    97047260.565       -2643.230          38.900                                                                  
G15  21048032.328   110608185.228       -1502.574          48.800    21048039.082    86188316.329       -1170.836          43.300    21048039.273    86188323.321       -1170.836          47.100                                                                  
C39  36617724.070   190678247.484         -26.313          48.400                                                                    36617714.734   154941595.229         -21.379          49.500  
R05  21442864.250   114624533.289        2584.648          39.000    21442863.219   114624329.296        2584.648          36.800    21442870.734    89152333.463        2010.281          39.400    21442870.746    89152333.454        2010.281          40.100  
G12  23325318.875   122575239.963        3334.348          35.200    23325326.262    95513328.069        2598.195          20.900    23325326.332    95513323.066        2598.195          36.000                                                                  
C33  25917092.102   134957144.516       -2519.250          34.800                                                                    25917096.555   109663697.359       -2047.098          34.900  
E25  24978911.438   131265114.588        1978.523          48.400    24978916.891   100579795.364        1516.012          49.700    24978917.449    98022676.577        1477.469          38.600    24978907.051   106546350.417        1605.945          48.200    24978918.227    99301244.773        1496.742          51.200  
C23  22181129.625   115503124.090        1211.426          50.400                                                                    22181112.078    93855618.727         984.383          50.600  
C32  22812175.070   118789001.377        1747.805          49.400                                                                    22812166.551    96525736.238        1420.234          49.300  
E24  25934956.086   136289171.852        -710.211          45.600    25934958.605   104429403.721        -544.188          44.600    25934959.656   101774375.057        -530.352          34.000    25934952.078   110624330.532        -576.469          43.700    25934960.781   103101910.697        -537.270          45.700  
E15  25561400.992   134326057.560       -1525.680          43.800    25561406.680   102925178.862       -1169.027          47.100    25561406.867   100308405.058       -1139.305          36.800    25561397.723   109030866.565       -1238.375          44.700    25561408.535   101616797.262       -1154.168          48.200  
C25  23142586.563   120509600.571       -1767.020          47.000                                                                    23142576.254    97923878.886       -1435.848          47.500  
E03  24130443.938   126806393.842         710.066          50.600    24130448.207    97163388.920         544.078          54.000    24130448.043    94693097.575         530.246          43.200    24130438.891   102927285.672         576.352          51.300    24130449.539    95928284.549         537.160          55.500  
E05  24767707.438   130155211.480       -1071.074          48.200    24767711.969    99729371.158        -820.695          49.600    24767711.914    97193859.555        -799.828          39.900    24767702.641   105645452.226        -869.379          48.200    24767713.656    98461640.158        -810.262          50.800  
> 2022 08 25 08 37 23.0000000  0 30                     
G23  20933065.711   110004099.581        1887.207          46.600    20933072.559    85717446.956        1470.551          40.900    20933072.563    85717439.954        1470.551          50.000    20933074.625    82145867.060        1409.277          41.700  
G18  22405855.875   117743687.948       -2400.039          42.600    22405864.094    91748244.013       -1870.160          31.500    22405864.102    91748251.012       -1870.160          44.600    22405864.145    87925404.285       -1792.238          36.200  
R04  19898941.758   106557982.224         211.539          51.800    19898940.164   106558039.235         211.539          49.800    19898946.238    82878424.297         164.527          50.300    19898946.773    82878440.294         164.527          51.600  
C13  36283684.008   188938724.575        -549.582          48.600    36283687.004   146099391.655        -424.973          47.000    36283678.293   153528134.795        -446.578          46.200  
C06  37024757.727   192797701.580         119.789          42.200    37024754.098   149083391.180          92.629          46.300    37024746.176   156663864.753          97.340          43.000  
R03  22160991.266   118629751.866       -2226.027          44.800    22160990.434   118629759.876       -2226.027          44.200    22160998.469    92267507.099       -1731.352          42.700    22160998.531    92267467.100       -1731.352          43.400  
C16  36982683.797   192578568.786           5.164          44.800    36982685.445   148914016.154           3.992          46.100    36982676.051   156485864.047           4.195          42.700  
C38  36554616.906   190349477.893       -1207.391          49.400                                                                    36554608.555   154674512.713        -981.102          47.700  
C09  38660356.984   201314678.673         143.254          38.600    38660355.406   155669265.659         110.773          42.600    38660346.039   163584614.640         116.406          39.800  
R14  19653240.664   104762980.557        -641.836          53.200    19653238.449   104763023.560        -641.836          50.800    19653246.691    81482256.178        -499.207          50.300    19653246.629    81482242.181        -499.207          50.300  
J07  37152774.883   195239125.368           0.141          40.800    37152767.656   195239203.528           0.141          46.300    37152781.668   152134449.877           0.109          48.500    37152781.230   145795502.286           0.105          40.800  
J02  37092746.672   194923658.467         174.004          44.600    37092741.645   194923756.495         174.004          44.000    37092755.375   151888643.336         135.586          47.000    37092755.121   145559924.699         129.938          39.800  
J04  38165440.164   200560716.883         607.238          47.600    38165435.801   200560721.425         607.238          50.500    38165446.836   156281131.213         473.172          53.000    38165445.789   149769383.493         453.457          43.500  
C41  22174587.961   115468977.790        -833.262          49.200                                                                    22174587.516    93828021.939        -677.094          50.000  
R15  20552172.359                        3321.945          51.000    20552170.992                        3321.945          49.200    20552178.535                        2583.734          46.200    20552178.336                        2583.734          47.200  
G24  19823917.164   104175375.265        -253.535          51.600    19823926.723    81175716.716        -197.559          56.200    19823926.879    81175715.721        -197.559          53.000    19823924.074    77793362.755        -189.328          46.600  
G05  23700566.758   124547323.375       -3392.539          39.800    23700575.309    97049899.888       -2643.535          26.800    23700576.703    97049903.889       -2643.535          38.900                                                                  
G15  21048318.289   110609687.951       -1503.016          48.800    21048325.043    86189487.281       -1171.184          42.600    21048324.992    86189494.276       -1171.184          47.200                                                                  
C39  36617729.125   190678273.817         -26.402          48.000                                                                    36617719.816   154941616.625         -21.453          49.000  
R05  21442380.750   114621948.661        2584.453          38.600    21442379.273   114621744.672        2584.453          36.300    21442387.137    89150323.194        2010.133          39.700    21442387.301    89150323.183        2010.133          40.100  
G12  23324684.383   122571905.679        3334.184          35.400    23324691.813    95510729.917        2598.066          20.400    23324692.141    95510724.925        2598.066          36.300                                                                  
C33  25917575.922   134959663.857       -2519.500          34.800                                                                    25917580.465   109665744.525       -2047.301          34.700  
E25  24978534.977   131263136.292        1978.043          48.600    24978540.453   100578279.527        1515.641          49.900    24978541.059    98021199.278        1477.109          38.300    24978530.617   106544744.658        1605.555          48.400    24978541.734    99299748.205        1496.375          51.100  
C23  22180897.031   115501912.908        1210.773          50.400                                                                    22180879.445    93854634.540         983.855          50.700  
C32  22811839.445   118787253.689        1747.465          49.200                                                                    22811830.941    96524316.101        1419.957          49.400  
E24  25935091.289   136289882.335        -710.809          46.200    25935093.707   104429948.116        -544.648          44.000    25935094.797   101774905.611        -530.801          33.800    25935087.359   110624907.220        -576.957          43.700    25935095.969   103102448.170        -537.723          45.700  
E15  25561691.367   134327583.476       -1526.270          43.800    25561697.063   102926348.072       -1169.480          47.000    25561697.184   100309544.544       -1139.746          36.700    25561688.066   109032105.135       -1238.855          44.900    25561698.910   101617951.609       -1154.613          48.300  
C25  23142925.953   120511367.839       -1767.629          47.400                                                                    23142915.609    97925314.938       -1436.344          47.600  
E03  24130308.844   126805683.878         709.789          50.200    24130313.098    97162844.920         543.863          53.700    24130312.898    94692567.406         530.039          43.200    24130303.793   102926709.404         576.129          51.700    24130314.410    95927747.462         536.953          55.200  
E05  24767911.273   130156282.626       -1071.328          49.000    24767915.777    99730191.903        -820.887          49.800    24767915.688    97194659.435        -800.020          40.100    24767906.461   105646321.659        -869.586          48.700    24767917.461    98462450.471        -810.453          50.800  
> 2022 08 25 08 37 24.0000000  0 30                     
G23  20932706.633   110002212.639        1886.707          46.400    20932713.629    85715976.611        1470.160          40.800    20932713.254    85715969.611        1470.160          50.000    20932715.613    82144457.984        1408.902          42.000  
G18  22406312.617   117746088.173       -2400.355          42.600    22406320.711    91750114.319       -1870.406          31.200    22406320.711    91750121.317       -1870.406          45.000    22406320.945    87927196.659       -1792.473          36.400  
R04  19898902.297   106557770.915         211.125          51.400    19898900.668   106557827.928         211.125          49.700    19898906.813    82878259.948         164.207          50.500    19898907.348    82878275.943         164.207          51.400  
C13  36283789.578   188939274.286        -549.816          48.600    36283792.531   146099816.725        -425.152          47.400    36283783.816   153528581.480        -446.770          46.400  
C06  37024734.727   192797581.785         119.773          42.600    37024730.922   149083298.543          92.617          46.200    37024723.164   156663767.406          97.328          42.600  
R03  22161407.141   118631978.072       -2226.391          45.200    22161406.266   118631986.085       -2226.391          44.200    22161414.340    92269238.589       -1731.637          42.500    22161414.309    92269198.593       -1731.637          43.600  
C16  36982682.805   192578563.663           5.121          45.000    36982684.328   148914012.196           3.961          46.100    36982675.098   156485859.888           4.160          43.300  
C38  36554848.789   190350685.402       -1207.645          48.600                                                                    36554840.363   154675493.914        -981.309          47.900  
C09  38660329.453   201314535.332         143.414          38.600    38660327.801   155669154.815         110.895          42.700    38660318.547   163584498.158         116.535          40.200  
R14  19653361.156   104763622.860        -642.734          52.800    19653359.207   104763665.863        -642.734          51.000    19653367.324    81482755.751        -499.902          50.300    19653366.840    81482741.754        -499.902          50.300  
J07  37152774.867   195239125.317           0.090          40.200    37152768.074   195239203.478           0.090          46.000    37152781.605   152134449.840           0.070          48.600    37152781.176   145795502.249           0.066          41.300  
J02  37092713.570   194923484.503         173.957          44.400    37092708.746   194923582.529         173.957          44.100    37092722.277   151888507.778         135.551          47.200    37092722.035   145559794.789         129.902          39.900  
J04  38165324.609   200560109.676         607.258          48.200    38165320.238   200560114.218         607.258          50.500    38165331.223   156280658.065         473.188          52.900    38165330.160   149768930.058         453.473          43.900  
C41  22174748.023   115469811.253        -833.633          49.600                                                                    22174747.574    93828699.194        -677.395          50.000  
R15  20551550.758                        3321.281          50.800    20551549.188                        3321.281          49.500    20551556.840                        2583.219          46.400    20551556.363                        2583.219          46.900  
G24  19823965.469   104175629.143        -254.133          51.800    19823975.035    81175914.542        -198.027          56.400    19823975.148    81175913.548        -198.027          52.900    19823972.367    77793552.339        -189.777          46.400  
G05  23701212.344   124550716.006       -3392.785          39.800    23701220.875    97052543.493       -2643.730          26.400    23701222.113    97052547.494       -2643.730          39.200                                                                  
G15  21048604.328   110611191.080       -1503.250          48.400    21048611.090    86190658.550       -1171.363          42.600    21048611.152    86190665.547       -1171.363          47.000                                                                  
C39  36617734.211   190678300.301         -26.512          48.200                                                                    36617724.875   154941638.145         -21.543          49.200  
R05  21441897.281   114619364.261        2584.461          39.000    21441895.371   114619160.268        2584.461          36.700    21441903.746    89148313.106        2010.137          39.400    21441904.004    89148313.095        2010.137          40.300  
G12  23324049.938   122568571.697        3334.039          35.600    23324057.434    95508132.018        2597.953          20.100    23324057.449    95508127.020        2597.953          36.500                                                                  
C33  25918059.797   134962183.533       -2519.820          34.800                                                                    25918064.371   109667791.966       -2047.559          35.100  
E25  24978158.617   131261158.493        1977.605          49.000    24978164.043   100576764.071        1515.305          50.100    24978164.750    98019722.349        1476.781          38.500    24978154.348   106543139.303        1605.199          48.500    24978165.371    99298252.013        1496.043          51.400  
C23  22180664.563   115500702.384        1210.266          50.800                                                                    22180646.961    93853650.893         983.441          50.900  
C32  22811503.891   118785506.336        1747.254          49.600                                                                    22811495.410    96522896.232        1419.789          49.300  
E24  25935226.609   136290593.434        -711.371          46.800    25935229.063   104430492.986        -545.078          44.200    25935230.027   101775436.627        -531.219          34.200    25935222.500   110625484.412        -577.410          43.700    25935231.301   103102986.113        -538.148          45.300  
E15  25561981.836   134329109.913       -1526.672          44.200    25561987.559   102927517.677       -1169.789          46.900    25561987.664   100310684.411       -1140.047          37.000    25561978.543   109033344.126       -1239.184          45.000    25561989.363   101619106.347       -1154.918          48.600  
C25  23143265.445   120513135.685       -1768.063          46.800                                                                    23143255.168    97926751.456       -1436.695          47.500  
E03  24130173.781   126804974.144         709.723          50.000    24130178.012    97162301.100         543.813          53.500    24130177.938    94692037.414         529.988          43.300    24130168.703   102926133.322         576.074          50.700    24130179.375    95927210.556         536.902          54.800  
E05  24768115.148   130157354.012       -1071.391          48.800    24768119.695    99731012.834        -820.938          50.200    24768119.629    97195459.496        -800.063          39.900    24768110.332   105647191.291        -869.637          48.700    24768121.363    98463260.968        -810.500          51.200  
> 2022 08 25 08 37 25.0000000  0 30                     
G23  20932347.656   110000326.192        1886.355          46.800    20932354.625    85714506.652        1469.887          40.400    20932354.348    85714499.652        1469.887          50.000    20932356.617    82143049.274        1408.641          41.700  
G18  22406769.445   117748488.820       -2400.730          42.400    22406777.633    91751984.945       -1870.699          31.800    22406777.703    91751991.948       -1870.699          44.800    22406777.789    87928989.348       -1792.754          36.200  
R04  19898862.906   106557560.017         210.855          51.600    19898861.492   106557617.028         210.855          49.500    19898867.500    82878095.913         163.996          50.500    19898867.688    82878111.910         163.996          51.300  
C13  36283895.188   188939824.232        -549.871          48.400    36283898.188   146100241.976        -425.195          47.300    36283889.582   153529028.356        -446.816          46.300  
C06  37024711.727   192797462.045         119.801          43.000    37024708.012   149083205.954          92.641          46.500    37024700.238   156663670.106          97.348          43.200  
R03  22161823.078   118634204.605       -2226.500          45.400    22161822.211   118634212.618       -2226.500          44.300    22161830.355    92270970.336       -1731.723          42.700    22161830.352    92270930.340       -1731.723          43.600  
C16  36982681.836   192578558.594           5.199          45.200    36982683.395   148914008.276           4.020          46.300    36982674.219   156485855.771           4.223          43.300  
C38  36555080.719   190351893.102       -1207.668          48.800                                                                    36555072.430   154676475.267        -981.328          47.900  
C09  38660301.938   201314392.069         143.270          38.400    38660300.242   155669044.037         110.785          41.900    38660291.066   163584381.751         116.418          39.400  
R14  19653481.820   104764266.069        -643.527          53.400    19653479.695   104764309.072        -643.527          51.100    19653487.965    81483256.022        -500.520          50.300    19653487.543    81483242.025        -500.520          50.700  
J07  37152774.867   195239125.297           0.234          40.000    37152768.008   195239203.458           0.234          46.200    37152781.691   152134449.823           0.184          48.100    37152781.219   145795502.236           0.176          41.000  
J02  37092680.484   194923310.639         173.938          45.000    37092675.813   194923408.664         173.938          44.600    37092689.039   151888372.301         135.535          47.200    37092688.945   145559664.953         129.887          40.000  
J04  38165209.070   200559502.474         607.277          48.000    38165204.699   200559507.017         607.277          50.300    38165215.578   156280184.920         473.203          52.600    38165214.617   149768476.629         453.484          43.600  
C41  22174908.141   115470645.057        -833.844          50.000                                                                    22174907.723    93829376.729        -677.566          50.000  
R15  20550929.281                        3320.852          50.800    20550927.695                        3320.852          49.300    20550935.414                        2582.883          46.700    20550935.328                        2582.883          47.000  
G24  19824013.898   104175883.611        -254.637          51.600    19824023.453    81176112.831        -198.418          56.600    19824023.727    81176111.836        -198.418          52.700    19824020.828    77793742.363        -190.152          46.300  
G05  23701857.992   124554108.873       -3392.953          39.200    23701866.473    97055187.293       -2643.859          27.000    23701867.602    97055191.285       -2643.859          38.800                                                                  
G15  21048890.422   110612694.496       -1503.367          48.400    21048897.023    86191830.038       -1171.457          42.700    21048897.293    86191837.037       -1171.457          47.300                                                                  
C39  36617739.305   190678326.825         -26.352          48.000                                                                    36617729.961   154941659.700         -21.410          49.000  
R05  21441413.836   114616779.955        2584.395          39.000    21441412.145   114616575.963        2584.395          37.200    21441420.289    89146303.088        2010.086          39.400    21441420.422    89146303.076        2010.086          39.800  
G12  23323415.523   122565237.883        3333.887          35.400    23323423.039    95505534.244        2597.836          21.300    23323423.172    95505529.243        2597.836          36.300                                                                  
C33  25918543.711   134964703.386       -2519.762          34.600                                                                    25918548.211   109669839.542       -2047.516          34.900  
E25  24977782.320   131259181.059        1977.391          48.600    24977787.773   100575248.894        1515.141          50.300    24977788.520    98018245.697        1476.621          38.400    24977778.086   106541534.244        1605.023          48.400    24977789.055    99296756.098        1495.883          51.400  
C23  22180432.195   115499492.388        1209.832          51.200                                                                    22180414.605    93852667.672         983.086          50.900  
C32  22811168.359   118783759.198        1747.184          49.600                                                                    22811159.910    96521476.545        1419.730          48.700  
E24  25935362.023   136291305.026        -711.719          46.800    25935364.551   104431038.229        -545.344          44.600    25935365.500   101775968.004        -531.477          34.000    25935358.035   110626062.006        -577.691          43.500    25935366.719   103103524.426        -538.410          45.400  
E15  25562272.391   134330636.762       -1526.941          43.800    25562278.059   102928687.599       -1169.996          47.200    25562278.277   100311824.591       -1140.250          36.400    25562269.203   109034583.450       -1239.402          45.000    25562279.906   101620261.395       -1155.121          48.300  
C25  23143605.023   120514903.972       -1768.355          46.600                                                                    23143594.715    97928188.333       -1436.934          47.900  
E03  24130038.742   126804264.527         709.676          50.600    24130042.969    97161757.368         543.777          54.200    24130042.848    94691507.505         529.953          43.200    24130033.621   102925557.336         576.035          50.500    24130044.324    95926673.735         536.863          54.900  
E05  24768319.047   130158425.517       -1071.453          49.000    24768323.609    99731833.858        -820.984          50.200    24768323.594    97196259.641        -800.113          39.200    24768314.203   105648061.019        -869.688          48.300    24768325.246    98464071.553        -810.547          51.200  
> 2022 08 25 08 37 26.0000000  0 30                     
G23  20931988.758   109998440.182        1885.766          47.000    20931995.797    85713037.036        1469.426          40.600    20931995.457    85713030.034        1469.426          50.200    20931997.664    82141640.891        1408.199          41.900  
G18  22407226.352   117750889.844       -2401.273          42.600    22407234.539    91753855.868       -1871.121          31.700    22407234.488    91753862.874       -1871.121          44.900    22407234.758    87930782.317       -1793.156          36.300  
R04  19898823.594   106557349.465         210.371          51.400    19898822.117   106557406.475         210.371          49.600    19898828.094    82877932.151         163.621          49.800    19898828.281    82877948.146         163.621          51.500  
C13  36284000.828   188940374.343        -550.211          48.000    36284003.637   146100667.357        -425.457          47.300    36283995.145   153529475.367        -447.090          46.000  
C06  37024688.742   192797342.333         119.703          42.600    37024685.023   149083113.389          92.563          46.500    37024677.258   156663572.832          97.266          43.000  
R03  22162239.070   118636431.427       -2226.938          45.400    22162238.348   118636439.439       -2226.938          44.600    22162246.254    92272702.306       -1732.063          42.600    22162246.270    92272662.310       -1732.063          43.400  
C16  36982680.859   192578553.529           4.996          45.400    36982682.438   148914004.358           3.863          46.300    36982673.254   156485851.653           4.059          43.200  
C38  36555312.672   190353100.955       -1207.941          48.800                                                                    36555304.313   154677456.745        -981.551          47.500  
C09  38660274.438   201314248.856         143.273          38.600    38660272.723   155668933.294         110.789          42.000    38660263.578   163584265.377         116.422          39.400  
R14  19653602.648   104764910.159        -644.543          52.600    19653600.434   104764953.160        -644.543          51.100    19653608.727    81483756.981        -501.313          50.300    19653608.258    81483742.985        -501.313          50.400  
J07  37152774.859   195239125.272           0.031          40.000    37152767.980   195239203.437           0.031          46.100    37152781.566   152134449.806           0.023          48.000    37152781.258   145795502.217           0.023          41.100  
J02  37092647.406   194923136.834         173.758          44.400    37092642.766   194923234.860         173.758          44.500    37092656.133   151888236.870         135.395          47.200    37092655.891   145559535.166         129.754          39.700  
J04  38165093.516   200558895.238         607.207          48.200    38165089.145   200558899.781         607.207          50.800    38165100.172   156279711.751         473.148          52.300    38165099.059   149768023.173         453.434          43.600  
C41  22175068.328   115471479.163        -834.293          50.000                                                                    22175067.984    93830054.507        -677.930          49.800  
R15  20550307.906                        3320.152          50.800    20550306.367                        3320.152          49.100    20550314.031                        2582.340          46.600    20550313.691                        2582.340          47.000  
G24  19824062.422   104176138.633        -255.262          51.800    19824071.953    81176311.550        -198.906          56.500    19824072.105    81176310.556        -198.906          52.700    19824069.313    77793932.802        -190.617          46.600  
