     3.02           OBSERVATION DATA    M: Mixed            RINEX VERSION / TYPE
CONVBIN 2.4.3                           20220826 040419 UTC PGM / RUN BY / DATE 
format: RTCM 3                                              COMMENT             
log: C:\ProjectFlutter\C#\KDT-DataConverter\2022-08-25_14-16COMMENT             
Naruemarn                                                   MARKER NAME         
Naruemarn                                                   MARKER NUMBER       
RG-CORS                                                     MARKER TYPE         
KKFC                KKFC                                    OBSERVER / AGENCY   
5904C00382          TRIMBLE BD990       5.41,24/APR/2019    REC # / TYPE / VERS 
se1234              C220GR2                                 ANT # / TYPE        
 -3918545.7166  3445005.7638  3656561.1665                  APPROX POSITION XYZ 
        1.9210        0.0000        0.0000                  ANTENNA: DELTA H/E/N
G   10 C1C L1C D1C S1C C2W L2W S2W C5X L5X S5X              SYS / # / OBS TYPES 
R    7 C1C L1C D1C S1C C2P L2P S2P                          SYS / # / OBS TYPES 
E   10 C1X L1X D1X S1X C6X L6X S6X C8X L8X S8X              SYS / # / OBS TYPES 
J   10 C1C L1C D1C S1C C2X L2X S2X C5X L5X S5X              SYS / # / OBS TYPES 
C   10 C1I L1I D1I S1I C7I L7I S7I C6I L6I S6I              SYS / # / OBS TYPES 
     1.000                                                  INTERVAL            
  2022    08    25    07    16   40.0000000     GPS         TIME OF FIRST OBS   
  2022    08    25    07    21   43.0000000     GPS         TIME OF LAST OBS    
G L1C                                                       SYS / PHASE SHIFT   
G L2W  0.00000                                              SYS / PHASE SHIFT   
G L5X  0.00000                                              SYS / PHASE SHIFT   
R L1C                                                       SYS / PHASE SHIFT   
R L2P  0.00000                                              SYS / PHASE SHIFT   
E L1X  0.00000                                              SYS / PHASE SHIFT   
E L6X  0.00000                                              SYS / PHASE SHIFT   
E L8X  0.00000                                              SYS / PHASE SHIFT   
J L1C                                                       SYS / PHASE SHIFT   
J L2X  0.00000                                              SYS / PHASE SHIFT   
J L5X  0.00000                                              SYS / PHASE SHIFT   
C L1I                                                       SYS / PHASE SHIFT   
C L7I                                                       SYS / PHASE SHIFT   
C L6I                                                       SYS / PHASE SHIFT   
  7 R03  5 R04  6 R13 -2 R14 -7 R18 -3 R19  3 R20  2        GLONASS SLOT / FRQ #
 C1C    0.000 C1P    0.000 C2C    0.000 C2P    0.000        GLONASS COD/PHS/BIS 
                                                            END OF HEADER       
> 2022 08 25 07 16 40.0000000  0 41                     
G02  23967987.628   125952452.6241      -3285.079          39.000    23967996.383    98145257.1681         27.000                                                  
G05  21090626.328   110832717.8831      -1761.138          49.000    21090633.941    86363166.6821         44.000                                                  
G13  21263455.644   111740610.3311      -1941.812          49.000    21263462.952    87070626.9171         39.000                                                  
G14  24347881.323   127949070.7641       -157.033          38.000    24347889.989    99700574.8641         18.000    24347889.614    95546384.7031         31.000  
G15  20254670.155   106438832.8441         37.294          51.000    20254677.803    82939371.9841         56.000                                                  
G18  21590201.986   113456992.9111        391.649          47.000    21590209.830    88407769.0831         40.000    21590210.384    84724924.9931         38.000  
G20  23448561.326   123222857.8211      -3210.743          38.000    23448571.601    96017811.1891         23.000                                                  
G23  23541201.328   123709278.1681       3168.119          40.000    23541209.333    96396985.3961         28.000    23541210.244    92380377.6161         35.000  
G24  21026999.241   110498014.9991       2627.709          48.000    21027010.284    86102364.1621         53.000    21027005.977    82514767.9191         40.000  
R03  20561723.047   110067774.3031       -835.840          52.000    20561728.408    85608958.3861         49.000  
R04  20721297.139   110961827.3381       1493.344          51.000    20721301.982    86303939.8951         49.000  
R13  20640937.087   110221217.5751       -862.374          40.000    20640942.841    85727592.3191         44.000  
R14  20858497.928   111187024.2171       3256.047          51.000    20858505.183    86479239.7751         49.000  
R18  23087831.175   123244854.3541      -4005.313          43.000    23087839.949    95856302.3621         40.000  
R19  21536680.724   115206733.3771      -2182.167          37.000    21536686.424    89605612.3071         43.000  
R20  23028324.827   123142396.7751       1840.314          35.000    23028333.154    95777420.0971         41.000  
E03  25144955.878   132138034.9491       1215.565          49.000    25144951.589   107254939.9371         48.000    25144961.560    99961609.6461         50.000  
E05  23867142.885   125422659.1861       -558.424          53.000    23867137.167   101804125.7351         52.000    23867148.282    94881454.0111         54.000  
E09  26951220.815   141629975.0321      -1807.911          42.000    26951217.902   114959401.8801         44.000    26951227.623   107142165.0161         44.000  
E15  25344989.065   133188221.5821        641.312          46.000    25344985.223   108108322.5171         47.000    25344995.373   100756722.6271         48.000  
E24  26057322.780   136932027.6231       1439.335          45.000    26057320.207   111146135.3951         46.000    26057328.230   103588323.5721         47.000  
E25  27222227.975   143054260.1451       2838.754          39.000    27222225.687   116115476.1701         40.000    27222237.731   108219199.1591         42.000  
E31  27463562.353   144322488.6451       -738.571          39.000    27463557.421   117144880.8411         38.000    27463569.500   109179029.9051         43.000  
E36  27540362.163   144726095.7881      -3156.417          39.000    27540359.375   117471629.1381         34.000    27540371.883   109483555.5201         39.000  
J02  37332278.722   196183139.8381        423.949          41.000    37332289.014   152869990.6831         43.000    37332285.637   146500409.7781         32.000  
J03  37229266.842   195640807.9511       -410.709          39.000    37229277.081   152447372.3351         43.000    37229274.347   146095396.1341         31.000  
C06  37459374.703   195061333.0671        413.742          41.000    37459371.111   150833811.6651         45.000    37459362.123   158503323.9071         44.000  
C09  39171978.156   203978353.4371        463.952          38.000    39171977.066   157729015.3091         42.000    39171966.451   165749131.9691         40.000  
C13  36275798.291   188897531.7831        253.068          49.000    36275800.561   146067556.2331         48.000    36275790.268   153494719.1201         48.000  
C14  25610721.021   133362126.2211      -2210.663          34.000    25610721.056   103124054.9161         39.000    25610713.123   108367651.2381         37.000  
C16  37271938.891   194084625.2271        270.099          46.000    37271939.713   150078562.5171         45.000    37271931.886   157709671.3471         43.000  
C23  24297130.688   126521948.0281       3054.723          42.000                                                    24297115.375   102809179.8301         45.000  
C24  25147920.581   130951946.4291      -2222.508          40.000                                                    25147911.628   106409030.2471         42.000  
C25  22470244.648   117007850.1781        767.550          50.000                                                    22470237.894    95079130.5681         49.000  
C27  25185828.051   131149328.7991      -2168.851          40.000                                                    25185823.655   106568999.8931         39.000  
C30  25796645.346   134329409.1481       -341.063          38.000                                                    25796641.915   109153635.0201         38.000  
C32  24885267.029   129584406.9361       2262.634          39.000                                                    24885259.613   105297087.2371         44.000  
C33  23732129.515   123579066.2581      -1623.460          45.000                                                    23732136.949   100417825.8591         45.000  
C38  35854561.413   186703337.3151       -447.811          50.000                                                    35854550.567   151711756.1371         51.000  
C39  36813923.954   191699816.4981        170.060          48.000                                                    36813915.877   155771820.2161         49.000  
C41  21985303.685   114483445.1521        527.277          51.000                                                    21985303.935    93027192.4591         52.000  
> 2022 08 25 07 16 41.0000000  0 41                     
G02  23968612.543   125955737.891       -3285.476          39.000    23968621.585    98147817.110          27.000                                                  
G05  21090961.033   110834479.336       -1761.844          49.000    21090969.146    86364539.240          44.000                                                  
G13  21263825.264   111742552.282       -1942.195          48.000    21263832.430    87072140.125          40.000                                                  
G14  24347911.128   127949228.112        -157.791          38.000    24347920.027    99700697.473          19.000    24347919.526    95546502.194          30.000  
G15  20254663.240   106438795.802          36.716          51.000    20254670.709    82939343.125          56.000                                                  
G18  21590127.472   113456601.688         390.783          46.000    21590135.442    88407464.235          39.000    21590135.942    84724632.850          39.000  
G20  23449172.625   123226068.730       -3211.185          38.000    23449182.721    96020313.195          23.000                                                  
G23  23540597.998   123706109.979        3168.059          39.000    23540606.486    96394516.677          29.000    23540607.379    92378011.765          34.000  
G24  21026499.408   110495387.605        2627.014          48.000    21026510.326    86100316.849          53.000    21026505.930    82512805.915          40.000  
R03  20561878.704   110068610.396        -836.338          52.000    20561884.440    85609608.685          49.000  
R04  20721018.525   110960334.181        1492.924          51.000    20721023.118    86302778.548          49.000  
R13  20641099.034   110222080.559        -863.589          40.000    20641104.484    85728263.528          44.000  
R14  20857887.415   111183768.556        3255.291          51.000    20857894.455    86476707.601          49.000  
R18  23088581.656   123248859.835       -4005.645          43.000    23088590.394    95859417.727          40.000  
R19  21537088.334   115208916.037       -2183.163          37.000    21537094.410    89607309.929          43.000  
R20  23027980.741   123140557.095        1839.211          35.000    23027988.997    95775989.239          41.000  
E03  25144724.492   132136819.494        1215.261          49.000    25144720.292   107253953.374          48.000    25144730.263    99960690.172          50.000  
E05  23867249.259   125423217.726        -558.733          52.000    23867243.345   101804579.102          52.000    23867254.584    94881876.550          54.000  
E09  26951564.937   141631782.957       -1808.044          42.000    26951562.060   114960869.352          44.000    26951571.655   107143532.698          44.000  
E15  25344866.769   133187580.608         640.549          46.000    25344863.088   108107802.243          47.000    25344873.416   100756237.731          48.000  
E24  26057048.830   136930588.599        1438.713          44.000    26057046.454   111144967.360          46.000    26057054.406   103587234.964          47.000  
E25  27221687.723   143051421.418        2838.660          40.000    27221685.507   116113172.016          40.000    27221697.515   108217051.687          43.000  
E31  27463702.732   144323227.650        -739.363          39.000    27463698.157   117145480.690          38.000    27463710.148   109179588.967          43.000  
E36  27540963.169   144729252.362       -3156.736          39.000    27540960.114   117474191.293          35.000    27540972.569   109485943.446          39.000  
J02  37332198.615   196182716.007         423.718          42.000    37332208.228   152869660.425          43.000    37332204.940   146500093.274          31.000  
J03  37229344.947   195641218.756        -410.935          39.000    37229355.168   152447692.445          44.000    37229352.435   146095702.907          31.000  
C06  37459295.221   195060919.428         413.439          42.000    37459291.630   150833491.813          45.000    37459282.695   158502987.796          43.000  
C09  39171889.025   203977889.618         463.712          38.000    39171888.006   157728656.668          42.000    39171877.357   165748755.090          40.000  
C13  36275749.777   188897278.921         252.619          49.000    36275751.921   146067360.704          48.000    36275741.736   153494513.648          48.000  
C14  25611146.161   133364337.125       -2211.215          33.000    25611146.035   103125764.514          39.000    25611137.744   108369447.765          38.000  
C16  37271887.017   194084355.281         269.806          45.000    37271888.000   150078353.780          45.000    37271879.959   157709451.994          43.000  
C23  24296544.334   126518893.539        3054.250          42.000                                                    24296528.717   102806697.810          45.000  
C24  25148347.936   130954169.240       -2223.241          41.000                                                    25148338.448   106410836.461          43.000  
C25  22470097.050   117007083.018         766.715          50.000                                                    22470090.564    95078507.182          49.000  
C27  25186244.953   131151497.921       -2169.344          40.000                                                    25186240.236   106570762.478          39.000  
C30  25796711.425   134329750.532        -341.717          38.000                                                    25796707.405   109153912.413          38.000  
C32  24884832.525   129582144.382        2262.443          39.000                                                    24884825.146   105295248.724          44.000  
C33  23732441.884   123580689.888       -1623.881          45.000                                                    23732448.674   100419145.187          46.000  
C38  35854647.417   186703785.321        -448.231          50.000                                                    35854636.588   151712120.171          51.000  
C39  36813891.325   191699646.614         169.723          47.000                                                    36813883.284   155771682.167          49.000  
C41  21985202.492   114482918.023         526.916          51.000                                                    21985202.689    93026764.128          52.000  
> 2022 08 25 07 16 42.0000000  0 41                     
G02  23969237.637   125959023.174       -3285.422          39.000    23969246.875    98150377.054          27.000                                                  
G05  21091296.649   110836241.147       -1762.063          49.000    21091304.458    86365912.082          44.000                                                  
G13  21264194.778   111744494.391       -1942.204          49.000    21264202.086    87073653.455          39.000                                                  
G14  24347941.595   127949385.980        -158.210          38.000    24347950.190    99700820.475          19.000    24347949.600    95546620.082          30.000  
G15  20254656.146   106438759.037          36.585          51.000    20254663.722    82939314.476          56.000                                                  
G18  21590053.030   113456211.130         390.144          46.000    21590060.999    88407159.900          39.000    21590061.625    84724341.198          39.000  
G20  23449783.549   123229279.817       -3211.165          38.000    23449793.860    96022815.332          23.000                                                  
G23  23539995.723   123702941.832        3167.991          40.000    23540003.871    96392047.997          29.000    23540004.478    92375645.947          34.000  
G24  21025999.236   110492760.690        2626.619          48.000    21026010.369    86098269.900          54.000    21026006.044    82510844.251          39.000  
R03  20562035.523   110069446.693        -836.418          52.000    20562040.794    85610259.141          49.000  
R04  20720739.447   110958841.161        1492.942          51.000    20720744.290    86301617.315          49.000  
R13  20641260.552   110222944.374        -864.299          40.000    20641266.271    85728935.387          44.000  
R14  20857276.902   111180513.434        3254.839          51.000    20857283.763    86474175.837          49.000  
R18  23089331.709   123252865.369       -4005.544          43.000    23089340.804    95862533.140          40.000  
R19  21537496.642   115211099.356       -2183.663          37.000    21537502.663    89609008.057          43.000  
R20  23027636.548   123138718.164        1838.515          35.000    23027645.250    95774558.958          41.000  
E03  25144493.231   132135604.107        1215.315          49.000    25144488.996   107252966.854          48.000    25144498.984    99959770.737          50.000  
E05  23867355.580   125423776.322        -558.670          52.000    23867349.683   101805032.503          52.000    23867360.851    94882299.115          54.000  
E09  26951908.933   141633590.871       -1807.981          42.000    26951905.967   114962336.812          44.000    26951915.688   107144900.371          44.000  
E15  25344745.135   133186940.071         640.271          46.000    25344741.150   108107282.324          47.000    25344751.514   100755753.167          48.000  
E24  26056775.059   136929149.927        1438.523          44.000    26056772.665   111143799.598          47.000    26056780.616   103586146.611          47.000  
E25  27221147.649   143048582.677        2838.791          39.000    27221145.433   116110867.845          40.000    27221157.299   108214904.205          43.000  
E31  27463843.254   144323967.122        -739.695          39.000    27463838.858   117146080.911          38.000    27463850.848   109180148.364          43.000  
E36  27541563.604   144732408.849       -3156.589          39.000    27541560.656   117476753.378          34.000    27541573.236   109488331.305          39.000  
J02  37332117.918   196182292.199         423.767          42.000    37332128.032   152869330.192          43.000    37332124.297   146499776.803          32.000  
J03  37229423.178   195641629.561        -410.915          39.000    37229433.453   152448012.544          44.000    37229430.576   146096009.672          31.000  
C06  37459215.919   195060505.812         413.545          42.000    37459212.291   150833171.984          45.000    37459203.249   158502651.697          43.000  
C09  39171799.966   203977425.823         463.784          38.000    39171799.019   157728298.028          41.000    39171788.279   165748378.214          40.000  
C13  36275701.030   188897026.183         252.632          49.000    36275703.443   146067165.271          48.000    36275693.186   153494308.273          48.000  
C14  25611570.961   133366548.099       -2211.064          34.000    25611570.818   103127474.183          39.000    25611562.419   108371244.367          38.000  
C16  37271834.929   194084085.349         269.947          45.000    37271836.269   150078145.054          45.000    37271828.103   157709232.655          43.000  
C23  24295957.891   126515839.198        3054.263          42.000                                                    24295942.202   102804215.905          45.000  
C24  25148774.827   130956392.365       -2223.364          41.000                                                    25148765.357   106412642.928          41.000  
C25  22469949.756   117006316.372         766.348          50.000                                                    22469943.376    95077884.220          50.000  
C27  25186661.623   131153667.217       -2169.531          40.000                                                    25186656.673   106572525.207          39.000  
C30  25796776.201   134330092.361        -342.055          38.000                                                    25796773.073   109154190.167          37.000  
C32  24884397.844   129579881.830        2262.617          40.000                                                    24884390.607   105293410.215          44.000  
C33  23732753.305   123582313.677       -1623.896          45.000                                                    23732760.560   100420464.649          46.000  
C38  35854733.331   186704233.458        -448.281          50.000                                                    35854722.646   151712484.324          50.000  
C39  36813858.911   191699476.745         169.781          47.000                                                    36813850.673   155771544.137          49.000  
C41  21985101.372   114482391.047         526.866          51.000                                                    21985101.532    93026335.912          52.000  
> 2022 08 25 07 16 43.0000000  0 41                     
G02  23969863.107   125962308.521       -3285.334          39.000    23969872.023    98152937.076          26.000                                                  
G05  21091631.890   110838003.383       -1762.478          49.000    21091639.716    86367285.246          44.000                                                  
G13  21264564.399   111746436.617       -1942.273          49.000    21264571.600    87075166.880          40.000                                                  
G14  24347971.061   127949544.411        -158.708          38.000    24347980.263    99700943.923          19.000    24347979.763    95546738.393          30.000  
G15  20254649.159   106438722.547          36.404          51.000    20254656.825    82939286.038          56.000                                                  
G18  21589979.177   113455821.177         389.666          46.000    21589986.879    88406856.043          39.000    21589987.540    84724050.006          39.000  
G20  23450394.670   123232491.125       -3211.443          38.000    23450404.998    96025317.652          23.000                                                  
G23  23539392.732   123699773.701        3168.084          40.000    23539401.202    96389579.322          31.000    23539401.649    92373280.136          34.000  
G24  21025499.744   110490134.209        2626.243          48.000    21025510.644    86096223.292          54.000    21025506.248    82508882.918          40.000  
R03  20562191.502   110070283.201        -836.616          52.000    20562196.880    85610909.756          49.000  
R04  20720461.030   110957348.225        1492.910          51.000    20720465.515    86300456.147          49.000  
R13  20641422.928   110223809.069        -865.156          40.000    20641428.146    85729607.935          44.000  
R14  20856666.085   111177258.829        3254.305          51.000    20856673.215    86471644.471          49.000  
R18  23090081.797   123256870.922       -4005.610          43.000    23090091.231    95865648.561          40.000  
R19  21537904.288   115213283.345       -2184.383          37.000    21537910.792    89610706.708          43.000  
R20  23027292.444   123136879.935        1837.903          36.000    23027301.558    95773129.228          40.000  
E03  25144262.041   132134388.770        1215.256          49.000    25144257.681   107251980.386          48.000    25144267.724    99958851.345          50.000  
E05  23867461.740   125424334.965        -558.684          53.000    23867455.879   101805485.952          52.000    23867467.190    94882721.729          54.000  
E09  26952252.751   141635398.720       -1807.932          42.000    26952249.946   114963804.222          44.000    26952259.720   107146267.997          44.000  
E15  25344623.089   133186299.973         639.866          46.000    25344619.319   108106762.769          47.000    25344629.719   100755268.940          48.000  
E24  26056501.252   136927711.589        1438.103          43.000    26056499.018   111142632.118          46.000    26056506.917   103585058.520          47.000  
E25  27220607.290   143045743.903        2838.758          40.000    27220605.164   116108563.651          40.000    27220617.082   108212756.702          43.000  
E31  27463983.972   144324706.959        -740.110          39.000    27463979.648   117146681.423          38.000    27463991.620   109180708.049          43.000  
E36  27542164.415   144735565.268       -3156.428          39.000    27542161.305   117479315.404          34.000    27542173.885   109490719.109          39.000  
J02  37332037.061   196181868.365         423.782          42.000    37332047.228   152868999.931          43.000    37332043.637   146499460.310          32.000  
J03  37229501.784   195642040.367        -410.867          40.000    37229511.505   152448332.659          44.000    37229508.735   146096316.434          31.000  
C06  37459136.741   195060092.292         413.512          42.000    37459133.131   150832852.217          45.000    37459123.839   158502315.671          43.000  
C09  39171710.781   203976962.106         463.800          39.000    39171709.852   157727939.457          41.000    39171699.220   165748001.411          40.000  
C13  36275652.534   188896773.550         252.545          49.000    36275655.000   146066969.919          47.000    36275644.618   153494102.988          48.000  
C14  25611995.636   133368759.189       -2210.892          33.000    25611995.243   103129183.941          39.000    25611986.970   108373041.056          38.000  
C16  37271783.216   194083815.502         269.806          45.000    37271784.502   150077936.389          45.000    37271776.300   157709013.387          43.000  
C23  24295371.537   126512785.032        3054.069          42.000                                                    24295355.669   102801734.150          45.000  
C24  25149201.736   130958615.837       -2223.680          41.000                                                    25149192.355   106414449.683          42.000  
C25  22469802.837   117005550.221         765.832          50.000                                                    22469796.189    95077261.659          50.000  
C27  25187078.311   131155836.682       -2169.559          40.000                                                    25187073.308   106574288.080          39.000  
C30  25796842.155   134330434.612        -342.464          38.000                                                    25796838.796   109154468.288          38.000  
C32  24883963.430   129577619.226        2262.604          40.000                                                    24883956.032   105291571.674          44.000  
C33  23733065.441   123583937.610       -1623.958          45.000                                                    23733072.410   100421784.225          46.000  
C38  35854819.513   186704681.729        -448.372          50.000                                                    35854808.703   151712848.578          51.000  
C39  36813826.157   191699306.914         169.841          48.000                                                    36813818.026   155771406.133          49.000  
C41  21985000.215   114481864.232         526.686          51.000                                                    21985000.340    93025907.829          52.000  
> 2022 08 25 07 16 44.0000000  0 41                     
G02  23970488.379   125965593.970       -3285.581          39.000    23970497.439    98155497.160          26.000                                                  
G05  21091967.184   110839766.074       -1762.974          49.000    21091975.082    86368658.778          44.000                                                  
G13  21264933.930   111748379.063       -1942.578          48.000    21264941.381    87076680.472          40.000                                                  
G14  24348001.527   127949703.390        -159.346          39.000    24348010.605    99701067.806          19.000    24348010.033    95546857.112          31.000  
G15  20254642.405   106438686.415          35.888          50.000    20254649.838    82939257.885          56.000                                                  
G18  21589905.003   113455431.981         388.784          46.000    21589912.883    88406552.773          39.000    21589913.508    84723759.373          39.000  
G20  23451005.898   123235702.691       -3211.641          38.000    23451016.101    96027820.155          23.000                                                  
G23  23538789.492   123696605.647        3168.081          40.000    23538798.462    96387110.713          30.000    23538798.945    92370914.377          34.000  
G24  21025000.340   110487508.247        2625.630          48.000    21025010.919    86094177.090          53.000    21025006.541    82506921.977          40.000  
R03  20562347.516   110071119.961        -836.937          52.000    20562353.234    85611560.567          49.000  
R04  20720181.898   110955855.411        1492.726          50.000    20720186.722    86299295.065          49.000  
R13  20641584.625   110224674.641        -866.097          40.000    20641590.307    85730281.160          44.000  
R14  20856056.001   111174004.779        3253.740          52.000    20856062.845    86469113.543          49.000  
R18  23090833.010   123260876.609       -4005.853          44.000    23090841.623    95868764.091          40.000  
R19  21538313.309   115215468.075       -2185.300          37.000    21538319.296    89612405.936          44.000  
R20  23026949.895   123135042.548        1836.942          35.000    23026957.901    95771700.152          40.000  
E03  25144030.870   132133173.562        1215.166          49.000    25144026.420   107250994.014          48.000    25144036.463    99957932.046          50.000  
E05  23867568.096   125424893.736        -558.877          52.000    23867562.253   101805939.498          52.000    23867573.493    94883144.432          54.000  
E09  26952596.873   141637206.607       -1807.940          41.000    26952594.032   114965271.660          44.000    26952603.752   107147635.654          44.000  
E15  25344501.598   133185660.416         639.243          46.000    25344497.542   108106243.646          47.000    25344508.013   100754785.115          48.000  
E24  26056227.856   136926273.648        1437.651          43.000    26056225.372   111141464.958          46.000    26056233.270   103583970.729          47.000  
E25  27220067.235   143042905.133        2838.735          40.000    27220064.929   116106259.459          39.000    27220076.884   108210609.188          43.000  
E31  27464124.959   144325447.285        -740.591          39.000    27464120.420   117147282.346          38.000    27464132.536   109181268.108          43.000  
E36  27542764.921   144738721.719       -3156.504          39.000    27542761.901   117481877.454          34.000    27542774.552   109493106.930          39.000  
J02  37331956.168   196181444.610         423.686          41.000    37331966.246   152868669.735          43.000    37331963.190   146499143.872          32.000  
J03  37229580.014   195642451.233        -410.864          39.000    37229589.753   152448652.812          44.000    37229586.876   146096623.250          31.000  
C06  37459057.170   195059678.844         413.344          42.000    37459053.704   150832532.516          44.000    37459044.430   158501979.714          43.000  
C09  39171621.669   203976498.540         463.339          38.000    39171620.865   157727580.999          42.000    39171610.179   165747624.735          40.000  
C13  36275603.894   188896521.086         252.328          49.000    36275606.521   146066774.700          47.000    36275596.193   153493897.843          48.000  
C14  25612420.025   133370970.418       -2211.197          34.000    25612419.864   103130893.785          39.000    25612411.716   108374837.849          38.000  
C16  37271731.324   194083545.751         269.643          45.000    37271732.646   150077727.800          45.000    37271724.480   157708794.188          43.000  
C23  24294784.861   126509731.104        3053.769          43.000                                                    24294769.118   102799252.576          45.000  
C24  25149628.556   130960839.721       -2224.151          40.000                                                    25149619.425   106416256.768          41.000  
C25  22469655.810   117004784.643         765.238          50.000                                                    22469649.074    95076639.559          50.000  
C27  25187494.802   131158006.441       -2169.952          40.000                                                    25187490.067   106576051.179          39.000  
C30  25796907.717   134330777.383        -343.175          38.000                                                    25796904.661   109154746.813          38.000  
C32  24883529.070   129575356.660        2262.455          40.000                                                    24883521.636   105289733.153          44.000  
C33  23733377.595   123585561.778       -1624.239          44.000                                                    23733384.314   100423103.996          45.000  
C38  35854905.624   186705130.192        -448.590          50.000                                                    35854894.903   151713212.993          51.000  
C39  36813793.778   191699137.178         169.648          48.000                                                    36813785.469   155771268.211          49.000  
C41  21984899.112   114481337.640         526.454          51.000                                                    21984899.184    93025479.930          51.000  
> 2022 08 25 07 16 45.0000000  0 41                     
G02  23971112.920   125968879.569       -3285.774          39.000    23971122.640    98158057.351          27.000                                                  
G05  21092302.889   110841529.249       -1763.508          50.000    21092310.662    86370032.676          44.000                                                  
G13  21265303.408   111750321.745       -1942.903          48.000    21265310.931    87078194.248          40.000                                                  
G14  24348032.066   127949862.983        -159.954          39.000    24348040.964    99701192.164          20.000    24348040.464    95546976.284          31.000  
G15  20254635.579   106438650.650          35.456          51.000    20254643.155    82939230.019          56.000                                                  
G18  21589830.775   113455043.516         387.951          47.000    21589838.816    88406250.066          39.000    21589839.495    84723469.276          38.000  
G20  23451616.607   123238914.586       -3212.054          38.000    23451627.221    96030322.940          24.000                                                  
G23  23538186.806   123693437.740        3167.800          40.000    23538195.562    96384642.214          29.000    23538196.133    92368548.732          34.000  
G24  21024500.007   110484882.837        2625.017          48.000    21024511.265    86092131.321          53.000    21024506.959    82504961.450          39.000  
R03  20562503.781   110071956.987        -837.240          52.000    20562509.588    85612211.589          49.000  
R04  20719903.123   110954362.747        1492.515          51.000    20719908.001    86298134.102          49.000  
R13  20641746.983   110225541.185        -867.178          41.000    20641752.630    85730955.136          44.000  
R14  20855445.273   111170751.344        3253.046          52.000    20855452.457    86466583.098          49.000  
R18  23091582.705   123264882.460       -4006.014          44.000    23091592.104    95871879.741          40.000  
R19  21538721.331   115217653.566       -2185.974          37.000    21538727.871    89614105.758          44.000  
R20  23026606.274   123133206.006        1835.979          35.000    23026614.422    95770271.730          41.000  
E03  25143799.573   132131958.489        1214.929          49.000    25143795.195   107250007.758          48.000    25143805.238    99957012.856          50.000  
E05  23867674.542   125425452.652        -559.099          53.000    23867668.502   101806393.168          52.000    23867679.867    94883567.254          54.000  
E09  26952940.780   141639014.547       -1807.981          42.000    26952937.957   114966739.142          44.000    26952947.785   107149003.344          44.000  
E15  25344379.946   133185021.390         638.659          46.000    25344375.996   108105724.958          47.000    25344386.396   100754301.698          49.000  
E24  26055954.067   136924836.138        1437.160          43.000    26055951.940   111140298.155          47.000    26055959.713   103582883.260          47.000  
E25  27219526.857   143040066.444        2838.508          40.000    27219524.928   116103955.328          40.000    27219536.685   108208461.747          43.000  
E31  27464265.874   144326188.121        -741.238          40.000    27464261.514   117147883.665          38.000    27464273.504   109181828.542          43.000  
E36  27543365.338   144741878.205       -3156.565          39.000    27543362.658   117484439.537          34.000    27543375.237   109495494.789          39.000  
J02  37331875.918   196181020.922         423.464          41.000    37331885.907   152868339.596          43.000    37331882.690   146498827.480          32.000  
J03  37229658.138   195642862.197        -411.111          40.000    37229668.001   152448973.044          45.000    37229665.071   146096930.142          30.000  
C06  37458977.850   195059265.569         413.111          42.000    37458974.097   150832212.949          44.000    37458965.055   158501643.898          43.000  
C09  39171532.663   203976035.065         463.194          38.000    39171531.895   157727222.605          42.000    39171521.298   165747248.109          39.000  
C13  36275555.666   188896268.834         252.047          49.000    36275558.132   146066579.643          48.000    36275547.786   153493692.867          47.000  
C14  25612844.397   133373181.854       -2211.547          34.000    25612844.736   103132603.817          39.000    25612836.427   108376634.829          38.000  
C16  37271679.415   194083276.143         269.469          45.000    37271680.808   150077519.322          45.000    37271672.750   157708575.113          43.000  
C23  24294198.918   126506677.438        3053.414          43.000                                                    24294182.711   102796771.222          45.000  
C24  25150055.875   130963064.073       -2224.736          41.000                                                    25150046.566   106418064.244          41.000  
C25  22469508.963   117004019.675         764.581          50.000                                                    22469502.208    95076017.960          49.000  
C27  25187911.847   131160176.462       -2170.302          40.000                                                    25187906.772   106577814.506          39.000  
C30  25796973.600   134331120.677        -343.705          38.000                                                    25796970.580   109155025.763          38.000  
C32  24883094.423   129573094.175        2262.296          40.000                                                    24883087.133   105287894.702          44.000  
C33  23733689.231   123587186.190       -1624.609          45.000                                                    23733696.218   100424423.967          46.000  
C38  35854991.842   186705578.902        -448.935          50.000                                                    35854981.014   151713577.607          50.000  
C39  36813761.149   191698967.585         169.449          48.000                                                    36813752.911   155771130.401          49.000  
C41  21984797.884   114480811.296         526.104          51.000                                                    21984798.116    93025052.235          52.000  
> 2022 08 25 07 16 46.0000000  0 41                     
G02  23971737.853   125972165.174       -3285.652          39.000    23971747.824    98160617.544          27.000                                                  
G05  21092638.523   110843292.785       -1763.835          50.000    21092646.243    86371406.862          44.000                                                  
G13  21265673.618   111752264.520       -1942.883          48.000    21265680.659    87079708.096          40.000                                                  
G14  24348062.514   127950023.098        -160.383          38.000    24348071.449    99701316.908          20.000    24348070.931    95547095.850          30.000  
G15  20254628.574   106438615.119          35.344          51.000    20254636.383    82939202.326          55.000                                                  
G18  21589757.154   113454655.647         387.513          46.000    21589764.981    88405947.835          39.000    21589765.696    84723179.640          39.000  
G20  23452227.728   123242126.651       -3212.233          37.000    23452238.288    96032825.831          22.000                                                  
G23  23537584.066   123690269.818        3167.811          40.000    23537592.857    96382173.701          30.000    23537593.179    92366183.084          33.000  
G24  21024000.801   110482257.841        2624.651          48.000    21024011.719    86090085.862          54.000    21024007.394    82503001.221          39.000  
R03  20562660.510   110072794.144        -837.322          52.000    20562665.978    85612862.705          50.000  
R04  20719624.438   110952870.104        1492.531          51.000    20719629.316    86296973.155          49.000  
R13  20641908.858   110226408.508        -867.738          40.000    20641914.916    85731629.725          45.000  
R14  20854835.225   111167498.371        3252.642          52.000    20854842.212    86464053.013          49.000  
R18  23092333.955   123268888.320       -4005.862          45.000    23092342.442    95874995.402          40.000  
R19  21539130.103   115219839.661       -2186.540          37.000    21539136.392    89615806.049          43.000  
R20  23026262.420   123131370.153        1835.405          34.000    23026271.140    95768843.843          41.000  
E03  25143568.366   132130743.443        1214.983          49.000    25143564.095   107249021.519          48.000    25143574.012    99956093.685          50.000  
E05  23867780.774   125426011.582        -559.055          52.000    23867774.895   101806846.840          52.000    23867786.224    94883990.079          54.000  
E09  26953284.759   141640822.435       -1807.922          41.000    26953281.918   114968206.578          44.000    26953291.799   107150371.002          44.000  
E15  25344258.454   133184382.787         638.352          46.000    25344254.469   108105206.599          47.000    25344264.869   100753818.596          49.000  
E24  26055680.599   136923398.921        1436.990          43.000    26055678.312   111139131.578          46.000    26055686.210   103581796.022          47.000  
E25  27218986.856   143037227.653        2838.811          40.000    27218984.586   116101651.124          39.000    27218996.469   108206314.222          43.000  
E31  27464406.843   144326929.331        -741.525          39.000    27464402.608   117148485.299          38.000    27464414.544   109182389.257          44.000  
E36  27543966.184   144745034.604       -3156.369          39.000    27543963.218   117487001.535          34.000    27543975.887   109497882.573          39.000  
J02  37331794.971   196180597.200         423.689          41.000    37331805.300   152868009.425          43.000    37331802.048   146498511.063          32.000  
J03  37229736.065   195643273.108        -410.993          39.000    37229746.089   152449293.234          44.000    37229743.230   146097236.996          31.000  
C06  37458898.868   195058852.319         413.131          42.000    37458894.705   150831893.396          44.000    37458885.699   158501308.099          43.000  
C09  39171443.729   203975571.653         463.282          38.000    39171442.782   157726864.260          42.000    39171432.329   165746871.549          40.000  
C13  36275507.348   188896016.666         252.115          49.000    36275509.474   146066384.646          47.000    36275499.414   153493487.953          47.000  
C14  25613268.393   133375393.284       -2211.581          34.000    25613269.358   103134313.837          39.000    25613261.067   108378431.799          37.000  
C16  37271627.934   194083006.557         269.517          45.000    37271629.113   150077310.859          44.000    37271620.929   157708356.046          43.000  
C23  24293612.599   126503623.900        3053.331          43.000                                                    24293596.321   102794289.963          45.000  
C24  25150483.106   130965288.710       -2224.936          41.000                                                    25150473.814   106419871.944          41.000  
C25  22469362.115   117003255.163         764.181          50.000                                                    22469355.378    95075396.730          50.000  
C27  25188328.446   131162346.639       -2170.316          40.000                                                    25188323.585   106579577.946          39.000  
C30  25797040.180   134331464.428        -344.081          38.000                                                    25797036.659   109155305.082          38.000  
C32  24882659.670   129570831.612        2262.570          40.000                                                    24882652.612   105286056.181          44.000  
C33  23734001.403   123588810.727       -1624.667          45.000                                                    23734008.157   100425744.027          45.000  
C38  35855077.882   186706027.696        -448.915          50.000                                                    35855067.267   151713942.284          51.000  
C39  36813728.681   191698797.987         169.552          48.000                                                    36813720.318   155770992.588          49.000  
C41  21984696.799   114480285.059         526.109          51.000                                                    21984697.067    93024624.624          52.000  
> 2022 08 25 07 16 47.0000000  0 41                     
G02  23972363.912   125975450.782       -3285.623          39.000    23972372.936    98163177.745          26.000                                                  
G05  21092974.282   110845056.699       -1764.138          50.000    21092981.984    86372781.336          44.000                                                  
G13  21266043.167   111754207.418       -1942.985          48.000    21266050.333    87081222.045          40.000                                                  
G14  24348093.213   127950183.721        -160.959          39.000    24348101.862    99701442.085          19.000    24348101.540    95547215.787          31.000  
G15  20254622.141   106438579.859          35.096          51.000    20254629.664    82939174.855          55.000                                                  
G18  21589683.087   113454268.402         386.854          46.000    21589691.361    88405646.077          39.000    21589692.093    84722890.455          39.000  
G20  23452839.349   123245338.912       -3212.390          38.000    23452849.480    96035328.892          23.000                                                  
G23  23536981.415   123687101.884        3167.942          40.000    23536990.242    96379705.181          30.000    23536990.385    92363817.413          33.000  
G24  21023501.379   110479633.279        2624.280          48.000    21023512.369    86088040.751          53.000    21023507.973    82501041.328          39.000  
R03  20562816.953   110073631.460        -837.423          52.000    20562822.350    85613513.952          50.000  
R04  20719345.377   110951377.572        1492.420          51.000    20719350.559    86295812.296          49.000  
R13  20642071.735   110227276.707        -868.673          40.000    20642077.524    85732304.990          44.000  
R14  20854224.765   111164245.892        3252.214          52.000    20854231.967    86461523.307          49.000  
R18  23093084.203   123272894.203       -4005.924          44.000    23093092.870    95878111.078          40.000  
R19  21539539.339   115222026.419       -2187.187          37.000    21539545.200    89617506.865          43.000  
R20  23025918.853   123129535.033        1834.718          34.000    23025928.109    95767416.536          41.000  
E03  25143337.194   132129528.435        1214.983          48.000    25143332.781   107248035.304          48.000    25143342.841    99955174.533          50.000  
E05  23867887.184   125426570.557        -559.040          52.000    23867881.305   101807300.546          51.000    23867892.598    94884412.935          54.000  
E09  26953629.023   141642630.240       -1807.815          42.000    26953625.789   114969673.955          43.000    26953635.814   107151738.590          44.000  
E15  25344137.141   133183744.600         637.947          46.000    25344132.960   108104688.593          47.000    25344143.431   100753335.819          49.000  
E24  26055407.293   136921962.031        1436.751          43.000    26055404.934   111137965.273          46.000    26055412.778   103580709.023          47.000  
E25  27218446.639   143034388.800        2838.860          40.000    27218444.298   116099346.860          40.000    27218456.253   108204166.655          43.000  
E31  27464548.294   144327670.936        -741.740          40.000    27464543.684   117149087.246          38.000    27464555.674   109182950.284          43.000  
E36  27544566.619   144748190.926       -3156.491          39.000    27544563.778   117489563.477          34.000    27544576.536   109500270.310          39.000  
J02  37331714.954   196180173.471         423.646          41.000    37331724.693   152867679.249          43.000    37331721.333   146498194.654          32.000  
J03  37229814.617   195643684.007        -410.920          39.000    37229824.338   152449613.415          44.000    37229821.425   146097543.834          32.000  
C06  37458819.369   195058439.069         413.177          42.000    37458815.367   150831573.845          44.000    37458806.253   158500972.297          44.000  
C09  39171355.027   203975108.239         463.411          39.000    39171353.830   157726505.925          42.000    39171343.305   165746494.985          40.000  
C13  36275458.905   188895764.582         251.966          49.000    36275461.121   146066189.717          48.000    36275450.971   153493283.117          47.000  
C14  25613693.211   133377604.804       -2211.477          33.000    25613694.051   103136023.923          39.000    25613685.831   108380228.834          38.000  
C16  37271576.257   194082736.995         269.495          45.000    37271577.436   150077102.414          44.000    37271569.145   157708137.007          43.000  
C23  24293026.138   126500570.507        3053.279          42.000                                                    24293009.967   102791808.833          45.000  
C24  25150910.712   130967513.676       -2225.221          40.000                                                    25150901.116   106421679.906          42.000  
C25  22469215.303   117002491.141         763.748          50.000                                                    22469208.656    95074775.896          50.000  
C27  25188745.366   131164516.982       -2170.510          40.000                                                    25188740.309   106581341.523          39.000  
C30  25797106.134   134331808.528        -344.314          38.000                                                    25797102.685   109155584.682          38.000  
C32  24882225.095   129568569.005        2262.615          40.000                                                    24882218.127   105284217.640          44.000  
C33  23734313.699   123590435.380       -1624.734          45.000                                                    23734320.043   100427064.198          45.000  
C38  35855164.118   186706476.609        -449.050          50.000                                                    35855153.378   151714307.066          51.000  
C39  36813695.999   191698628.394         169.534          48.000                                                    36813687.815   155770854.777          49.000  
C41  21984595.875   114479758.979         525.994          51.000                                                    21984596.125    93024197.136          52.000  
> 2022 08 25 07 16 48.0000000  0 41                     
G02  23972989.417   125978736.607       -3285.886          39.000    23972998.262    98165738.130          24.000                                                  
G05  21093309.916   110846821.154       -1764.788          49.000    21093317.725    86374156.238          44.000                                                  
G13  21266412.735   111756150.610       -1943.323          48.000    21266420.007    87082736.218          39.000                                                  
G14  24348123.805   127950344.999        -161.746          38.000    24348132.561    99701567.790          19.000    24348132.311    95547336.239          31.000  
G15  20254615.440   106438545.021          34.626          51.000    20254622.874    82939147.709          55.000                                                  
G18  21589609.378   113453881.927         386.086          47.000    21589617.722    88405344.932          39.000    21589618.598    84722601.855          38.000  
G20  23453450.684   123248551.514       -3212.713          38.000    23453460.815    96037832.218          25.000                                                  
G23  23536378.657   123683934.138        3167.653          40.000    23536387.377    96377236.810          31.000    23536387.556    92361451.886          34.000  
G24  21023002.351   110477009.290        2623.732          48.000    21023013.001    86085996.091          53.000    21023008.695    82499081.862          39.000  
R03  20562973.236   110074469.131        -837.830          52.000    20562978.847    85614165.472          50.000  
R04  20719066.585   110949885.315        1492.116          51.000    20719071.910    86294651.649          49.000  
R13  20642234.682   110228145.925        -869.798          40.000    20642240.418    85732981.047          45.000  
R14  20853615.110   111160994.059        3251.470          52.000    20853621.972    86458994.110          49.000  
R18  23093834.542   123276900.283       -4006.140          44.000    23093843.208    95881226.918          40.000  
R19  21539948.254   115224213.992       -2188.024          37.000    21539954.133    89619208.306          43.000  
R20  23025577.286   123127700.814        1833.871          35.000    23025585.184    95765989.926          41.000  
E03  25143105.790   132128313.632        1214.670          49.000    25143101.716   107247049.269          48.000    25143111.651    99954255.546          50.000  
E05  23867993.433   125427129.710        -559.280          52.000    23867987.840   101807754.411          52.000    23867998.990    94884835.938          54.000  
E09  26953972.913   141644438.153       -1807.884          41.000    26953969.982   114971141.417          44.000    26953979.864   107153106.267          44.000  
E15  25344015.775   133183107.024         637.253          46.000    25344011.808   108104171.082          47.000    25344022.118   100752853.492          49.000  
E24  26055133.843   136920525.630        1436.115          44.000    26055131.538   111136799.368          46.000    26055139.454   103579622.402          47.000  
E25  27217906.334   143031550.070        2838.615          40.000    27217904.207   116097042.699          39.000    27217916.036   108202019.175          43.000  
E31  27464689.173   144328413.096        -742.400          40.000    27464685.046   117149689.652          38.000    27464696.911   109183511.725          43.000  
E36  27545167.322   144751347.321       -3156.468          39.000    27545164.570   117492125.491          35.000    27545177.203   109502658.099          39.000  
J02  37331634.132   196179749.872         423.483          41.000    37331644.193   152867349.174          43.000    37331640.744   146497878.332          31.000  
J03  37229892.436   195644095.061        -411.048          40.000    37229902.604   152449933.711          44.000    37229899.655   146097850.781          31.000  
C06  37458739.888   195058026.041         412.981          42.000    37458736.117   150831254.465          44.000    37458726.986   158500636.678          44.000  
C09  39171265.896   203974645.057         463.147          38.000    39171264.896   157726147.770          42.000    39171254.299   165746118.616          40.000  
C13  36275410.498   188895512.769         251.682          49.000    36275412.749   146065994.999          48.000    36275402.564   153493078.501          48.000  
C14  25614117.618   133379816.563       -2211.936          33.000    25614118.815   103137734.206          39.000    25614110.596   108382026.083          38.000  
C16  37271524.133   194082467.634         269.280          45.000    37271525.598   150076894.129          45.000    37271517.486   157707918.129          42.000  
C23  24292440.177   126497517.431        3052.859          43.000                                                    24292423.613   102789327.964          45.000  
C24  25151337.817   130969739.136       -2225.705          40.000                                                    25151328.489   106423488.265          42.000  
C25  22469068.902   117001727.778         763.030          50.000                                                    22469062.005    95074155.609          50.000  
