     3.02           OBSERVATION DATA    M: Mixed            RINEX VERSION / TYPE
CONVBIN 2.4.3                           20220826 040232 UTC PGM / RUN BY / DATE 
format: RTCM 3                                              COMMENT             
log: C:\ProjectFlutter\C#\KDT-DataConverter\2022-08-25_14-13COMMENT             
Naruemarn                                                   MARKER NAME         
Naruemarn                                                   MARKER NUMBER       
RG-CORS                                                     MARKER TYPE         
KKFC                KKFC                                    OBSERVER / AGENCY   
5904C00382          TRIMBLE BD990       5.41,24/APR/2019    REC # / TYPE / VERS 
se1234              C220GR2                                 ANT # / TYPE        
 -3918545.7166  3445005.7638  3656561.1665                  APPROX POSITION XYZ 
        1.9210        0.0000        0.0000                  ANTENNA: DELTA H/E/N
G   10 C1C L1C D1C S1C C2W L2W S2W C5X L5X S5X              SYS / # / OBS TYPES 
R    7 C1C L1C D1C S1C C2P L2P S2P                          SYS / # / OBS TYPES 
E   10 C1X L1X D1X S1X C6X L6X S6X C8X L8X S8X              SYS / # / OBS TYPES 
J   10 C1C L1C D1C S1C C2X L2X S2X C5X L5X S5X              SYS / # / OBS TYPES 
C   10 C1I L1I D1I S1I C7I L7I S7I C6I L6I S6I              SYS / # / OBS TYPES 
     1.000                                                  INTERVAL            
  2022    08    25    07    14   05.0000000     GPS         TIME OF FIRST OBS   
  2022    08    25    07    15   08.0000000     GPS         TIME OF LAST OBS    
G L1C                                                       SYS / PHASE SHIFT   
G L2W  0.00000                                              SYS / PHASE SHIFT   
G L5X  0.00000                                              SYS / PHASE SHIFT   
R L1C                                                       SYS / PHASE SHIFT   
R L2P  0.00000                                              SYS / PHASE SHIFT   
E L1X  0.00000                                              SYS / PHASE SHIFT   
E L6X  0.00000                                              SYS / PHASE SHIFT   
E L8X  0.00000                                              SYS / PHASE SHIFT   
J L1C                                                       SYS / PHASE SHIFT   
J L2X  0.00000                                              SYS / PHASE SHIFT   
J L5X  0.00000                                              SYS / PHASE SHIFT   
C L1I                                                       SYS / PHASE SHIFT   
C L7I                                                       SYS / PHASE SHIFT   
C L6I                                                       SYS / PHASE SHIFT   
  7 R03  5 R04  6 R13 -2 R14 -7 R18 -3 R19  3 R20  2        GLONASS SLOT / FRQ #
 C1C    0.000 C1P    0.000 C2C    0.000 C2P    0.000        GLONASS COD/PHS/BIS 
                                                            END OF HEADER       
> 2022 08 25 07 14 05.0000000  0 41                     
G02  23871277.723   125444243.4541      -3271.830          39.000    23871286.068    97749250.9421         25.000                                                  
G05  21039662.195   110564902.6581      -1694.336          49.000    21039670.397    86154479.6251         44.000                                                  
G13  21206578.668   111441719.5461      -1914.648          49.000    21206585.441    86837725.0981         39.000                                                  
G14  24344523.948   127931425.3131        -70.625          39.000    24344532.525    99686825.1861         20.000    24344532.346    95533207.9421         31.000  
G15  20256479.376   106448339.6411         85.620          51.000    20256486.792    82946779.8801         56.000                                                  
G18  21603296.763   113525807.1531        496.358          47.000    21603304.626    88461390.5851         39.000    21603305.108    84776312.2821         39.000  
G20  23354420.076   122728141.0811      -3172.500          37.000    23354429.493    95632318.2631         22.000                                                  
G23  23634772.056   124200995.3561       3176.382          39.000    23634780.543    96780141.3601         27.000    23634781.222    92747568.7121         32.000  
G24  21105604.018   110911083.8541       2702.105          48.000    21105614.847    86424235.8261         53.000    21105610.237    82823228.2311         40.000  
R03  20538002.134   109940795.4031       -802.464          52.000    20538007.441    85510197.1191         49.000  
R04  20764789.001   111194724.0051       1511.817          51.000    20764794.129    86485081.6861         49.000  
R13  20617902.094   110098208.2841       -724.535          40.000    20617907.115    85631918.3861         45.000  
R14  20954388.627   111698173.3411       3338.945          51.000    20954395.667    86876799.9481         48.000  
R18  22971737.563   122625144.5181      -3990.062          42.000    22971746.604    95374307.0011         40.000  
R19  21475034.525   114876969.6871      -2071.955          38.000    21475040.457    89349129.6161         44.000  
R20  23083385.523   123436836.4121       1958.870          35.000    23083395.173    96006428.5671         41.000  
E03  25181009.276   132327496.1061       1229.283          49.000    25181004.559   107408723.2651         47.000    25181014.833   100104935.6771         50.000  
E05  23850867.600   125337131.5181       -545.000          52.000    23850861.650   101734703.9481         52.000    23850872.943    94816752.9051         54.000  
E09  26897883.872   141349688.6911      -1808.628          42.000    26897881.353   114731896.9881         43.000    26897890.573   106930130.5431         44.000  
E15  25365006.480   133293413.9701        716.070          47.000    25365002.102   108193705.9481         46.000    25365013.020   100836299.9961         49.000  
E24  26100610.721   137159502.5231       1495.835          44.000    26100607.397   111330773.9501         46.000    26100615.367   103760406.6391         46.000  
E25  27305930.266   143494114.1741       2836.544          40.000    27305927.121   116472499.8801         38.000    27305939.880   108551944.9921         43.000  
E31  27442793.759   144213352.6581       -669.287          38.000    27442790.168   117056296.3931         38.000    27442801.604   109096469.2041         42.000  
E36  27447211.232   144236591.4001      -3159.384          39.000    27447210.160   117074305.0051         39.000    27447221.435   109113249.7591         40.000  
J02  37344842.664   196249160.7101        428.081          38.000    37344853.082   152921435.1711         44.000    37344850.651   146549710.6581         33.000  
J03  37217224.246   195577521.8351       -405.708          40.000    37217233.324   152398058.6311         43.000    37217230.715   146048137.2161         31.000  
C06  37471886.146   195126481.1201        427.008          42.000    37471882.215   150884188.2051         44.000    37471873.209   158556261.9801         43.000  
C09  39185990.168   204051315.8471        477.749          38.000    39185988.721   157785434.3311         41.000    39185978.124   165808419.7671         39.000  
C13  36283665.861   188938499.7091        275.669          48.000    36283668.095   146099235.2371         48.000    36283657.463   153528008.9271         47.000  
C14  25545179.428   133020834.4221      -2192.880          37.000    25545179.893   102860146.8821         41.000    25545171.441   108090324.0471         38.000  
C16  37280166.522   194127468.8161        282.935          46.000    37280167.558   150111691.8401         45.000    37280159.570   157744485.2191         42.000  
C23  24388509.870   126997779.4041       3084.815          42.000                                                    24388494.109   103195831.4721         45.000  
C24  25082646.219   130612046.8771      -2162.905          41.000                                                    25082637.463   106132834.1541         41.000  
C25  22494328.642   117133262.5431        850.713          50.000                                                    22494322.049    95181038.3111         50.000  
C27  25121790.977   130815872.4091      -2133.130          40.000                                                    25121787.117   106298039.5221         41.000  
C30  25787596.097   134282285.2051       -266.694          37.000                                                    25787592.309   109115343.0621         38.000  
C32  24952624.686   129935153.1221       2263.199          41.000                                                    24952617.324   105582097.0601         44.000  
C33  23684232.332   123329651.7311      -1594.819          46.000                                                    23684239.193   100215156.2561         46.000  
C38  35841611.375   186635905.5851       -422.148          50.000                                                    35841601.118   151656962.3661         51.000  
C39  36819140.279   191726978.0881        180.664          48.000                                                    36819132.041   155793891.1841         49.000  
C41  22001427.601   114567406.2901        556.070          52.000                                                    22001427.851    93095417.7541         52.000  
> 2022 08 25 07 14 06.0000000  0 41                     
G02  23871900.477   125447515.396       -3271.927          40.000    23871908.786    97751800.505          25.000                                                  
G05  21039984.928   110566597.261       -1694.754          49.000    21039992.879    86155800.093          44.000                                                  
G13  21206942.678   111443634.189       -1914.685          48.000    21206949.790    86839217.016          39.000                                                  
G14  24344537.206   127931496.262         -71.262          38.000    24344545.926    99686880.474          20.000    24344545.783    95533260.916          30.000  
G15  20256463.187   106448254.228          85.324          51.000    20256470.620    82946713.329          56.000                                                  
G18  21603202.790   113525311.120         495.784          47.000    21603210.170    88461004.064          39.000    21603210.635    84775941.870          39.000  
G20  23355022.477   122731313.633       -3172.649          38.000    23355033.091    95634790.382          25.000                                                  
G23  23634167.368   124197819.077        3176.360          39.000    23634176.016    96777666.349          28.000    23634176.910    92745196.828          32.000  
G24  21105089.837   110908382.043        2701.599          48.000    21105100.701    86422130.517          53.000    21105096.073    82821210.640          40.000  
R03  20538151.912   109941597.996        -802.647          52.000    20538157.416    85510821.352          49.000  
R04  20764506.670   111193212.197        1511.776          51.000    20764511.852    86483905.840          49.000  
R13  20618037.238   110098933.258        -725.289          40.000    20618042.813    85632482.252          45.000  
R14  20953762.121   111694834.653        3338.499          51.000    20953769.286    86874203.188          48.000  
R18  22972485.774   122629134.693       -3990.249          43.000    22972494.030    95377410.458          40.000  
R19  21475422.140   114879042.168       -2072.748          39.000    21475427.750    89350741.546          44.000  
R20  23083020.209   123434877.935        1958.063          35.000    23083028.911    96004905.321          42.000  
E03  25180775.353   132326266.877        1229.304          49.000    25180770.599   107407725.517          47.000    25180780.928   100104005.776          50.000  
E05  23850971.294   125337676.574        -545.086          52.000    23850965.237   101735146.363          51.000    23850976.637    94817165.237          54.000  
E09  26898227.958   141351497.312       -1808.577          42.000    26898225.456   114733365.017          44.000    26898234.748   106931498.747          44.000  
E15  25364870.318   133292698.164         715.583          46.000    25364865.941   108193124.930          46.000    25364876.805   100835758.485          49.000  
E24  26100326.175   137158006.946        1495.466          45.000    26100322.583   111329560.010          46.000    26100330.767   103759275.249          46.000  
E25  27305390.890   143491277.580        2836.672          40.000    27305387.334   116470197.455          39.000    27305400.093   108549799.138          43.000  
E31  27442920.826   144214022.202        -669.758          38.000    27442917.627   117056839.857          38.000    27442928.992   109096975.712          42.000  
E36  27447812.364   144239750.677       -3159.163          39.000    27447811.292   117076869.349          39.000    27447822.603   109115639.729          40.000  
J02  37344761.628   196248732.674         428.000          39.000    37344771.384   152921101.645          44.000    37344769.312   146549391.034          32.000  
J03  37217301.172   195577927.575        -405.716          39.000    37217310.500   152398374.788          42.000    37217307.891   146048440.204          31.000  
C06  37471803.913   195126054.155         426.969          42.000    37471800.249   150883858.051          44.000    37471791.172   158555915.033          43.000  
C09  39185898.393   204050838.278         477.579          37.000    39185897.017   157785065.044          41.000    39185886.385   165808031.703          39.000  
C13  36283612.790   188938224.146         275.539          48.000    36283614.970   146099022.158          48.000    36283604.517   153527785.004          47.000  
C14  25545600.922   133023027.374       -2192.928          37.000    25545600.922   102861842.611          40.000    25545592.613   108092106.005          38.000  
C16  37280112.271   194127185.951         282.882          46.000    37280113.290   150111473.106          45.000    37280105.249   157744255.373          43.000  
C23  24387917.547   126994694.631        3084.768          42.000                                                    24387901.680   103193324.848          45.000  
C24  25083061.745   130614209.954       -2163.133          41.000                                                    25083052.882   106134591.828          42.000  
C25  22494165.302   117132412.086         850.255          50.000                                                    22494158.762    95180347.243          50.000  
C27  25122200.749   130818005.800       -2133.436          40.000                                                    25122196.782   106299773.073          41.000  
C30  25787647.113   134282552.208        -267.230          38.000                                                    25787643.575   109115560.022          38.000  
C32  24952189.772   129932889.922        2263.263          40.000                                                    24952182.714   105580258.029          44.000  
C33  23684538.392   123331246.525       -1594.803          45.000                                                    23684545.522   100216452.154          46.000  
C38  35841692.518   186636327.820        -422.274          50.000                                                    35841682.101   151657305.473          51.000  
C39  36819105.506   191726797.487         180.602          48.000                                                    36819097.393   155793744.432          49.000  
C41  22001320.780   114566850.318         555.944          52.000                                                    22001320.959    93094965.979          53.000  
> 2022 08 25 07 14 07.0000000  0 41                     
G02  23872523.212   125450787.485       -3272.139          40.000    23872531.396    97754350.176          27.000                                                  
G05  21040307.428   110568292.365       -1695.298          49.000    21040315.433    86157120.945          44.000                                                  
G13  21207307.868   111445549.078       -1914.985          49.000    21207314.140    86840709.142          39.000                                                  
G14  24344550.251   127931567.809         -71.792          38.000    24344559.525    99686936.207          20.000    24344559.400    95533314.343          30.000  
G15  20256446.336   106448169.196          84.907          51.000    20256454.484    82946647.068          56.000                                                  
G18  21603108.227   113524815.841         494.966          47.000    21603115.714    88460618.127          40.000    21603116.429    84775572.019          39.000  
G20  23355626.467   122734486.506       -3173.042          37.000    23355636.849    95637262.757          24.000                                                  
G23  23633562.877   124194642.912        3176.133          39.000    23633571.615    96775191.406          28.000    23633572.329    92742825.010          32.000  
G24  21104575.853   110905680.760        2701.045          48.000    21104586.628    86420025.621          53.000    21104581.999    82819193.451          39.000  
R03  20538302.208   109942400.873        -802.974          52.000    20538307.390    85511445.816          49.000  
R04  20764224.608   111191700.584        1511.503          51.000    20764229.575    86482730.139          49.000  
R13  20618173.614   110099659.183        -726.323          40.000    20618178.850    85633046.861          45.000  
R14  20953135.883   111691496.543        3337.869          51.000    20953143.066    86871606.873          48.000  
R18  22973232.932   122633125.052       -3990.444          43.000    22973241.455    95380514.064          40.000  
R19  21475809.897   114881115.395       -2073.548          38.000    21475815.383    89352354.056          44.000  
R20  23082653.465   123432920.293        1957.146          35.000    23082662.811    96003382.699          42.000  
E03  25180541.483   132325037.833        1228.980          49.000    25180536.765   107406727.914          47.000    25180547.040   100103076.010          50.000  
E05  23851075.238   125338221.783        -545.268          52.000    23851069.056   101735588.903          51.000    23851080.385    94817577.684          54.000  
E09  26898572.509   141353306.012       -1808.672          42.000    26898569.524   114734833.127          44.000    26898578.959   106932867.021          45.000  
E15  25364734.049   133291982.918         714.981          47.000    25364729.814   108192544.373          46.000    25364740.697   100835217.408          49.000  
E24  26100041.307   137156511.786        1495.049          45.000    26100038.019   111328346.399          46.000    26100046.221   103758144.168          46.000  
E25  27304851.138   143488441.040        2836.572          39.000    27304847.636   116467895.068          39.000    27304860.287   108547653.309          43.000  
E31  27443048.500   144214692.239        -670.186          39.000    27443045.159   117057383.718          38.000    27443056.505   109097482.593          42.000  
E36  27448413.621   144242910.051       -3159.453          39.000    27448412.674   117079433.769          38.000    27448423.824   109118029.768          40.000  
J02  37344680.092   196248304.749         427.925          39.000    37344690.134   152920768.193          44.000    37344687.918   146549071.482          32.000  
J03  37217378.920   195578333.415        -405.884          39.000    37217387.712   152398691.032          43.000    37217385.067   146048743.260          32.000  
C06  37471722.001   195125627.366         426.720          42.000    37471718.302   150883528.031          44.000    37471709.207   158555568.235          43.000  
C09  39185806.028   204050360.827         477.466          37.000    39185805.188   157784695.858          42.000    39185794.717   165807643.740          39.000  
C13  36283559.952   188937948.817         275.215          49.000    36283562.132   146098809.257          48.000    36283551.678   153527561.282          48.000  
C14  25546022.399   133025220.502       -2193.242          38.000    25546022.203   102863538.470          41.000    25546013.822   108093888.106          38.000  
C16  37280057.860   194126903.243         282.642          46.000    37280058.968   150111254.496          45.000    37280050.945   157744025.647          43.000  
C23  24387325.386   126991610.131        3084.425          42.000                                                    24387309.322   103190818.436          45.000  
C24  25083477.057   130616373.507       -2163.701          42.000                                                    25083468.284   106136349.891          42.000  
C25  22494002.175   117131562.235         849.571          50.000                                                    22493995.617    95179656.674          50.000  
C27  25122610.200   130820139.488       -2133.915          40.000                                                    25122606.429   106301506.869          41.000  
C30  25787698.326   134282819.750        -267.768          37.000                                                    25787694.949   109115777.419          38.000  
C32  24951755.304   129930626.824        2263.087          40.000                                                    24951748.050   105578419.081          44.000  
C33  23684844.846   123332841.606       -1595.180          46.000                                                    23684851.851   100217748.288          46.000  
C38  35841773.590   186636750.299        -422.543          51.000                                                    35841763.226   151657648.772          51.000  
C39  36819070.983   191726617.030         180.411          48.000                                                    36819062.745   155793597.795          49.000  
C41  22001213.977   114566294.605         555.650          51.000                                                    22001214.334    93094514.419          52.000  
> 2022 08 25 07 14 08.0000000  0 41                     
G02  23873145.465   125454059.671       -3272.383          40.000    23873154.132    97756899.920          26.000                                                  
G05  21040630.035   110569987.887       -1695.825          48.000    21040638.183    86158442.126          44.000                                                  
G13  21207671.752   111447464.143       -1915.302          48.000    21207678.453    86842201.398          39.000                                                  
G14  24344564.135   127931639.929         -72.514          38.000    24344573.159    99686992.416          19.000    24344573.105    95533368.199          31.000  
G15  20256431.058   106448084.461          84.463          51.000    20256438.313    82946581.045          56.000                                                  
G18  21603013.897   113524321.225         494.136          47.000    21603021.652    88460232.717          39.000    21603022.313    84775202.660          39.000  
G20  23356230.976   122737659.610       -3173.335          37.000    23356240.626    95639735.305          22.000                                                  
G23  23632958.564   124191466.789        3175.943          39.000    23632967.177    96772716.516          27.000    23632967.963    92740453.232          32.000  
G24  21104061.654   110902979.947        2700.435          48.000    21104072.554    86417921.095          53.000    21104068.140    82817176.612          39.000  
R03  20538452.147   109943203.960        -803.345          52.000    20538457.454    85512070.434          49.000  
R04  20763941.688   111190189.099        1511.313          51.000    20763947.245    86481554.542          49.000  
R13  20618309.365   110100385.991        -727.417          40.000    20618314.869    85633612.147          45.000  
R14  20952509.985   111688158.924        3337.225          51.000    20952516.918    86869010.952          48.000  
R18  22973980.876   122637115.510       -3990.619          43.000    22973989.006    95383617.742          40.000  
R19  21476197.941   114883189.372       -2074.418          38.000    21476203.052    89353967.139          44.000  
R20  23082287.615   123430963.366        1956.394          35.000    23082296.924    96001860.644          42.000  
E03  25180307.488   132323808.842        1228.853          49.000    25180303.003   107405730.354          48.000    25180313.170   100102146.284          49.000  
E05  23851178.861   125338767.074        -545.483          53.000    23851172.678   101736031.507          51.000    23851184.150    94817990.193          54.000  
E09  26898916.595   141355114.703       -1808.818          43.000    26898913.807   114736301.207          44.000    26898923.152   106934235.271          45.000  
E15  25364598.030   133291268.128         714.439          47.000    25364593.867   108191964.184          46.000    25364604.678   100834676.674          49.000  
E24  26099756.814   137155017.007        1494.361          44.000    26099753.544   111327133.105          46.000    26099761.764   103757013.375          47.000  
E25  27304311.476   143485604.493        2836.455          39.000    27304307.741   116465592.691          38.000    27304320.518   108545507.494          43.000  
E31  27443176.281   144215362.764        -670.839          39.000    27443172.761   117057927.975          38.000    27443184.108   109097989.841          42.000  
E36  27449014.645   144246069.357       -3159.443          39.000    27449013.877   117081998.141          39.000    27449025.009   109120419.759          40.000  
J02  37344598.573   196247876.825         427.960          39.000    37344608.812   152920434.750          44.000    37344606.435   146548751.936          32.000  
J03  37217455.668   195578739.270        -406.030          39.000    37217465.192   152399007.282          42.000    37217462.262   146049046.338          32.000  
C06  37471640.357   195125200.610         426.524          42.000    37471636.283   150883198.038          44.000    37471627.224   158555221.463          43.000  
C09  39185714.520   204049883.450         477.198          37.000    39185713.341   157784326.722          42.000    39185703.066   165807255.841          39.000  
C13  36283507.220   188937673.591         275.025          49.000    36283509.365   146098596.428          48.000    36283498.875   153527337.629          47.000  
C14  25546443.197   133027413.744       -2193.553          38.000    25546443.447   102865234.422          41.000    25546435.048   108095670.295          38.000  
C16  37280003.431   194126620.599         282.438          46.000    37280004.771   150111035.944          45.000    37279996.730   157743795.978          43.000  
C23  24386733.260   126988525.782        3084.156          43.000                                                    24386716.999   103188312.153          45.000  
C24  25083892.369   130618537.430       -2164.257          41.000                                                    25083883.917   106138108.260          42.000  
C25  22493839.085   117130712.910         848.917          50.000                                                    22493832.473    95178966.525          50.000  
C27  25123020.455   130822273.391       -2134.101          40.000                                                    25123016.148   106303240.835          41.000  
C30  25787749.949   134283087.782        -268.407          37.000                                                    25787746.447   109115995.215          38.000  
C32  24951320.462   129928363.711        2263.004          40.000                                                    24951313.368   105576580.109          44.000  
C33  23685150.942   123334436.845       -1595.458          45.000                                                    23685158.179   100219044.550          46.000  
C38  35841854.805   186637172.932        -422.841          50.000                                                    35841844.405   151657992.193          51.000  
C39  36819036.067   191726436.629         180.216          48.000                                                    36819028.097   155793451.206          49.000  
C41  22001107.299   114565739.058         555.328          51.000                                                    22001107.656    93094062.989          52.000  
> 2022 08 25 07 14 09.0000000  0 41                     
G02  23873768.594   125457331.922       -3272.362          39.000    23873776.974    97759449.716          27.000                                                  
G05  21040952.589   110571683.801       -1696.176          49.000    21040960.844    86159763.620          44.000                                                  
G13  21208035.977   111449379.355       -1915.336          48.000    21208042.981    86843693.771          39.000                                                  
G14  24344577.626   127931712.575         -72.938          39.000    24344586.918    99687049.036          19.000    24344586.918    95533422.449          31.000  
G15  20256414.404   106448000.011          84.259          51.000    20256422.284    82946515.233          56.000                                                  
G18  21602920.138   113523827.257         493.566          47.000    21602927.643    88459847.810          39.000    21602928.358    84774833.791          39.000  
G20  23356834.521   122740832.943       -3173.417          38.000    23356844.599    95642208.035          22.000                                                  
G23  23632354.162   124188290.659        3176.007          39.000    23632362.614    96770241.607          28.000    23632363.472    92738081.447          32.000  
G24  21103547.991   110900279.579        2700.079          48.000    21103558.873    86415816.908          53.000    21103554.263    82815160.101          40.000  
R03  20538602.033   109944007.241        -803.446          52.000    20538607.554    85512695.208          49.000  
R04  20763660.018   111188677.702        1511.299          51.000    20763665.093    86480379.006          49.000  
R13  20618445.866   110101113.604        -728.046          39.000    20618451.245    85634178.068          45.000  
R14  20951883.854   111684821.795        3336.840          51.000    20951890.966    86866415.403          48.000  
R18  22974728.390   122641106.066       -3990.653          43.000    22974736.539    95386721.497          40.000  
R19  21476584.734   114885263.997       -2074.949          38.000    21476590.863    89355580.737          45.000  
R20  23081923.766   123429007.167        1955.809          35.000    23081930.949    96000339.151          42.000  
E03  25180073.761   132322579.927        1228.829          49.000    25180069.151   107404732.860          48.000    25180079.318   100101216.620          50.000  
E05  23851282.662   125339312.415        -545.429          52.000    23851276.604   101736474.156          51.000    23851287.933    94818402.740          54.000  
E09  26899260.716   141356923.344       -1808.661          42.000    26899257.964   114737769.255          44.000    26899267.328   106935603.499          45.000  
E15  25364462.190   133290553.786         714.058          47.000    25364458.044   108191384.363          47.000    25364468.748   100834136.279          49.000  
E24  26099472.178   137153522.519        1494.274          45.000    26099469.194   111325920.048          46.000    26099477.360   103755882.805          46.000  
E25  27303771.617   143482767.865        2836.515          39.000    27303767.829   116463290.232          39.000    27303780.694   108543361.609          43.000  
E31  27443303.956   144216033.661        -671.069          39.000    27443300.489   117058472.527          38.000    27443311.764   109098497.368          42.000  
E36  27449615.902   144249228.658       -3159.159          39.000    27449615.312   117084562.499          38.000    27449626.195   109122809.742          40.000  
J02  37344517.466   196247448.941         427.784          39.000    37344527.329   152920101.338          43.000    37344525.114   146548432.404          33.000  
J03  37217533.219   195579145.139        -405.873          40.000    37217542.297   152399323.544          42.000    37217539.474   146049349.418          32.000  
C06  37471557.820   195124773.944         426.535          41.000    37471554.354   150882868.109          44.000    37471545.330   158554874.755          43.000  
C09  39185623.138   204049406.133         477.272          38.000    39185621.727   157783957.628          42.000    39185611.327   165806867.975          40.000  
C13  36283454.417   188937398.463         275.031          48.000    36283456.562   146098383.684          48.000    36283445.947   153527114.070          47.000  
C14  25546864.137   133029607.047       -2193.402          38.000    25546864.441   102866930.414          41.000    25546856.257   108097452.531          38.000  
C16  37279949.377   194126338.028         282.462          45.000    37279950.521   150110817.435          45.000    37279942.462   157743566.361          43.000  
C23  24386140.741   126985441.616        3084.069          43.000                                                    24386124.802   103185806.018          45.000  
C24  25084308.056   130620701.714       -2164.486          41.000                                                    25084299.533   106139866.910          42.000  
C25  22493676.119   117129864.082         848.527          50.000                                                    22493669.436    95178276.785          50.000  
C27  25123430.334   130824407.501       -2134.251          40.000                                                    25123426.010   106304974.969          41.000  
C30  25787802.056   134283356.210        -268.631          37.000                                                    25787797.981   109116213.332          38.000  
C32  24950886.548   129926100.566        2263.087          40.000                                                    24950878.811   105574741.121          44.000  
C33  23685457.593   123336032.237       -1595.506          45.000                                                    23685464.633   100220340.933          46.000  
C38  35841936.037   186637595.696        -422.860          50.000                                                    35841925.530   151658335.723          51.000  
C39  36819001.526   191726256.266         180.289          48.000                                                    36818993.467   155793304.649          50.000  
C41  22001000.621   114565183.668         555.275          51.000                                                    22001000.978    93093611.694          52.000  
> 2022 08 25 07 14 10.0000000  0 41                     
G02  23874391.222   125460604.281       -3272.486          39.000    23874399.763    97761999.597          25.000                                                  
G05  21041275.518   110573380.191       -1696.685          49.000    21041283.809    86161085.482          44.000                                                  
G13  21208400.469   111451294.781       -1915.571          48.000    21208407.706    86845186.304          39.000                                                  
G14  24344592.118   127931785.801         -73.609          38.000    24344601.070    99687106.105          20.000    24344600.802    95533477.128          31.000  
G15  20256398.751   106447915.904          83.843          51.000    20256406.327    82946449.695          56.000                                                  
G18  21602826.147   113523333.991         492.822          47.000    21602833.652    88459463.444          39.000    21602834.510    84774465.445          39.000  
G20  23357438.100   122744006.549       -3173.877          37.000    23357448.482    95644680.967          22.000                                                  
G23  23631749.993   124185114.623        3175.956          39.000    23631758.087    96767766.772          28.000    23631759.463    92735709.732          32.000  
G24  21103034.274   110897579.731        2699.497          48.000    21103045.013    86413713.135          53.000    21103040.510    82813143.987          40.000  
R03  20538752.097   109944810.820        -803.734          52.000    20538757.618    85513320.208          49.000  
R04  20763377.884   111187166.432        1511.143          51.000    20763382.745    86479203.581          49.000  
R13  20618581.653   110101842.166        -729.071          40.000    20618587.729    85634744.732          45.000  
R14  20951258.242   111681485.236        3336.215          51.000    20951264.925    86863820.308          48.000  
R18  22975475.137   122645096.742       -3990.838          43.000    22975484.286    95389825.353          40.000  
R19  21476973.475   114887339.408       -2075.906          38.000    21476978.889    89357194.950          44.000  
R20  23081557.683   123427051.792        1954.954          35.000    23081565.295    95998818.304          42.000  
E03  25179839.695   132321351.118        1228.691          49.000    25179835.263   107403735.450          48.000    25179845.484   100100287.036          50.000  
E05  23851386.410   125339857.876        -545.596          53.000    23851380.388   101736916.900          51.000    23851391.717    94818815.373          55.000  
E09  26899604.999   141358732.030       -1808.745          42.000    26899602.086   114739237.349          44.000    26899611.521   106936971.757          45.000  
E15  25364326.403   133289839.967         713.437          47.000    25364322.133   108190804.972          47.000    25364332.925   100833596.284          49.000  
E24  26099188.168   137152028.433        1493.818          44.000    26099184.755   111324707.321          46.000    26099193.046   103754752.545          46.000  
E25  27303231.544   143479931.224        2836.591          39.000    27303228.184   116460987.774          39.000    27303240.907   108541215.714          43.000  
E31  27443431.880   144216705.063        -671.841          39.000    27443428.449   117059017.499          39.000    27443439.564   109099005.279          42.000  
E36  27450217.016   144252387.964       -3159.424          39.000    27450216.534   117087126.863          39.000    27450227.398   109125199.731          40.000  
J02  37344436.269   196247021.040         427.744          38.000    37344445.578   152919767.904          43.000    37344443.738   146548112.865          33.000  
J03  37217610.181   195579551.061        -406.001          40.000    37217619.580   152399639.847          42.000    37217616.811   146049652.535          32.000  
C06  37471476.302   195124347.380         426.469          41.000    37471472.424   150882538.260          44.000    37471463.472   158554528.141          43.000  
C09  39185531.309   204048928.953         477.114          38.000    39185530.112   157783588.656          42.000    39185519.694   165806480.232          40.000  
C13  36283401.311   188937123.510         274.785          49.000    36283403.705   146098171.079          47.000    36283393.144   153526890.650          47.000  
C14  25547285.525   133031800.519       -2193.619          38.000    25547285.864   102868626.543          41.000    25547277.466   108099234.904          39.000  
C16  37279895.163   194126055.546         282.373          46.000    37279896.342   150110599.012          45.000    37279888.247   157743336.826          42.000  
C23  24385549.026   126982357.662        3083.754          43.000                                                    24385532.515   103183300.053          45.000  
C24  25084724.530   130622866.422       -2165.005          41.000                                                    25084715.238   106141625.911          43.000  
C25  22493513.136   117129015.829         847.934          50.000                                                    22493506.524    95177587.511          50.000  
C27  25123839.946   130826541.898       -2134.566          40.000                                                    25123835.961   106306709.340          41.000  
C30  25787853.554   134283625.220        -269.429          37.000                                                    25787849.712   109116431.920          38.000  
C32  24950451.580   129923837.445        2263.031          40.000                                                    24950444.183   105572902.157          44.000  
C33  23685763.993   123337627.848       -1595.787          46.000                                                    23685771.069   100221637.497          46.000  
C38  35842017.216   186638018.657        -423.096          50.000                                                    35842006.799   151658679.414          51.000  
C39  36818966.771   191726076.010         180.146          48.000                                                    36818958.801   155793158.174          50.000  
C41  22000894.014   114564628.487         555.024          51.000                                                    22000894.354    93093160.564          52.000  
> 2022 08 25 07 14 11.0000000  0 41                     
G02  23875013.725   125463876.678       -3272.381          39.000    23875022.499    97764549.521          25.000                                                  
G05  21041598.482   110575076.924       -1696.952          49.000    21041606.541    86162407.610          44.000                                                  
G13  21208765.015   111453210.318       -1915.619          48.000    21208772.109    86846678.937          40.000                                                  
G14  24344606.056   127931859.520         -74.037          38.000    24344614.990    99687163.534          20.000    24344614.847    95533532.181          30.000  
G15  20256382.847   106447832.049          83.707          51.000    20256390.370    82946384.353          56.000                                                  
G18  21602732.460   113522841.344         492.282          47.000    21602740.036    88459079.559          39.000    21602740.787    84774097.553          40.000  
G20  23358042.324   122747180.369       -3173.900          37.000    23358052.348    95647154.067          23.000                                                  
G23  23631145.913   124181938.582        3175.881          39.000    23631153.489    96765291.944          28.000    23631155.490    92733338.021          32.000  
G24  21102520.343   110894880.282        2699.181          48.000    21102531.297    86411609.664          53.000    21102526.830    82811128.161          40.000  
R03  20538902.697   109945614.555        -803.823          52.000    20538907.843    85513945.333          49.000  
R04  20763095.000   111185655.229        1511.147          51.000    20763100.575    86478028.203          49.000  
R13  20618718.834   110102571.559        -729.991          40.000    20618724.212    85635312.040          44.000  
R14  20950631.968   111678149.144        3335.823          51.000    20950639.205    86861225.574          48.000  
R18  22976222.741   122649087.486       -3990.825          44.000    22976231.801    95392929.251          40.000  
R19  21477361.340   114889415.478       -2076.458          38.000    21477366.897    89358809.662          44.000  
R20  23081191.029   123425097.127        1954.089          35.000    23081199.677    95997298.016          42.000  
E03  25179605.968   132320122.356        1228.708          49.000    25179601.465   107402738.081          48.000    25179611.668   100099357.488          50.000  
E05  23851490.282   125340403.369        -545.555          52.000    23851484.082   101737359.669          51.000    23851495.554    94819228.040          55.000  
E09  26899949.156   141360540.636       -1808.700          42.000    26899946.315   114740705.371          44.000    26899955.714   106938339.954          45.000  
E15  25364190.474   133289126.562         713.146          46.000    25364186.239   108190225.904          47.000    25364197.192   100833056.595          49.000  
E24  26098903.872   137150534.625        1493.629          44.000    26098900.405   111323494.808          46.000    26098908.786   103753622.485          47.000  
E25  27302691.756   143477094.543        2836.779          39.000    27302688.379   116458685.273          39.000    27302701.084   108539069.785          43.000  
E31  27443559.232   144217376.837        -671.976          39.000    27443556.356   117059562.765          38.000    27443567.399   109099513.476          42.000  
E36  27450818.166   144255547.212       -3159.358          39.000    27450817.558   117089691.178          39.000    27450828.565   109127589.670          40.000  
J02  37344354.536   196246593.144         427.750          39.000    37344364.489   152919434.488          43.000    37344362.291   146547793.342          33.000  
J03  37217687.840   195579956.978        -405.902          40.000    37217696.935   152399956.139          43.000    37217694.059   146049955.657          32.000  
C06  37471394.623   195123920.853         426.465          42.000    37471390.638   150882208.445          44.000    37471381.543   158554181.558          43.000  
C09  39185440.052   204048451.826         477.046          38.000    39185438.748   157783219.704          42.000    39185427.991   165806092.525          40.000  
C13  36283348.615   188936848.671         274.780          49.000    36283350.956   146097958.554          48.000    36283340.431   153526667.316          48.000  
C14  25547706.930   133033994.049       -2193.637          38.000    25547707.234   102870322.704          41.000    25547698.746   108101017.310          38.000  
C16  37279840.734   194125773.100         282.378          45.000    37279842.020   150110380.604          45.000    37279833.925   157743107.322          42.000  
C23  24384956.525   126979273.848        3083.677          42.000                                                    24384940.336   103180794.208          45.000  
C24  25085140.074   130625031.456       -2165.307          41.000                                                    25085130.978   106143385.176          41.000  
C25  22493350.278   117128168.048         847.490          50.000                                                    22493343.702    95176898.617          49.000  
C27  25124250.326   130828676.456       -2134.672          40.000                                                    25124245.805   106308443.840          40.000  
C30  25787904.999   134283894.596        -269.634          37.000                                                    25787901.389   109116650.808          38.000  
C32  24950017.149   129921574.274        2263.121          40.000                                                    24950009.608   105571063.154          44.000  
C33  23686070.268   123339223.586       -1595.864          45.000                                                    23686077.487   100222934.160          46.000  
C38  35842098.342   186638441.729        -423.183          50.000                                                    35842087.995   151659023.193          51.000  
C39  36818932.587   191725895.755         180.235          48.000                                                    36818924.189   155793011.699          49.000  
C41  22000787.354   114564073.446         554.912          51.000                                                    22000787.801    93092709.547          52.000  
> 2022 08 25 07 14 12.0000000  0 41                     
G02  23875636.121   125467149.221       -3272.621          39.000    23875645.199    97767099.535          26.000                                                  
G05  21041921.286   110576774.168       -1697.494          49.000    21041929.613    86163730.135          44.000                                                  
G13  21209129.472   111455126.108       -1915.936          48.000    21209136.780    86848171.756          39.000                                                  
G14  24344620.279   127931933.855         -74.647          38.000    24344629.410    99687221.438          20.000    24344628.982    95533587.682          31.000  
G15  20256366.837   106447748.573          83.259          51.000    20256374.449    82946319.307          56.000                                                  
G18  21602638.772   113522349.410         491.633          47.000    21602646.545    88458696.243          39.000    21602647.206    84773730.208          39.000  
G20  23358646.529   122750354.477       -3174.242          38.000    23358656.232    95649627.419          24.000                                                  
G23  23630541.136   124178762.625        3175.910          39.000    23630549.069    96762817.175          28.000    23630550.695    92730966.376          32.000  
G24  21102007.038   110892181.361        2698.605          48.000    21102017.723    86409506.615          53.000    21102013.292    82809112.735          40.000  
R03  20539052.278   109946418.512        -804.096          52.000    20539058.014    85514570.637          49.000  
R04  20762813.420   111184144.205        1510.904          51.000    20762818.459    86476852.955          49.000  
R13  20618856.050   110103301.936        -730.927          40.000    20618861.035    85635880.118          45.000  
R14  20950006.159   111674813.653        3335.189          51.000    20950013.557    86858631.308          48.000  
R18  22976971.006   122653078.414       -3991.048          44.000    22976979.351    95396033.304          41.000  
R19  21477749.026   114891492.293       -2077.180          38.000    21477755.209    89360424.967          44.000  
R20  23080826.072   123423143.218        1953.494          35.000    23080834.256    95995778.307          42.000  
E03  25179372.080   132318893.735        1228.547          49.000    25179367.738   107401740.823          48.000    25179377.888   100098428.046          50.000  
E05  23851594.083   125340949.000        -545.716          53.000    23851587.990   101737802.549          51.000    23851599.373    94819640.806          55.000  
E09  26900293.063   141362349.301       -1808.724          42.000    26900290.454   114742173.441          44.000    26900299.907   106939708.193          45.000  
E15  25364054.866   133288413.687         712.614          47.000    25364050.720   108189647.280          47.000    25364061.513   100832517.312          49.000  
E24  26098619.754   137149041.296        1493.166          44.000    26098616.091   111322282.697          46.000    26098624.633   103752492.793          47.000  
E25  27302151.647   143474257.906        2836.540          39.000    27302148.627   116456382.819          39.000    27302161.296   108536923.898          43.000  
E31  27443687.443   144218049.119        -672.606          39.000    27443684.244   117060108.454          39.000    27443695.341   109100022.047          42.000  
E36  27451419.083   144258706.477       -3159.378          39.000    27451418.815   117092255.517          38.000    27451429.769   109129979.631          40.000  
J02  37344272.660   196246165.349         427.658          39.000    37344282.953   152919101.144          43.000    37344280.844   146547473.895          33.000  
J03  37217764.820   195580362.971        -406.063          41.000    37217773.987   152400272.503          43.000    37217771.574   146050258.837          32.000  
C06  37471312.282   195123494.464         426.279          42.000    37471308.726   150881878.733          44.000    37471299.667   158553835.079          43.000  
C09  39185348.134   204047974.774         477.007          38.000    39185347.044   157782850.813          42.000    39185336.358   165805704.886          40.000  
C13  36283295.901   188936574.003         274.551          49.000    36283298.153   146097746.163          47.000    36283287.735   153526444.133          47.000  
C14  25548128.228   133036187.727       -2193.653          38.000    25548128.514   102872018.999          41.000    25548119.919   108102799.858          39.000  
C16  37279786.733   194125490.790         282.212          45.000    37279787.966   150110162.309          45.000    37279779.693   157742877.920          42.000  
C23  24384364.346   126976190.276        3083.408          42.000                                                    24384348.192   103178288.553          45.000  
C24  25085555.796   130627196.925       -2165.713          41.000                                                    25085546.898   106145144.802          42.000  
C25  22493187.545   117127320.860         846.895          50.000                                                    22493181.040    95176210.212          49.000  
C27  25124660.509   130830811.315       -2135.015          40.000                                                    25124655.738   106310178.591          40.000  
C30  25787957.194   134284164.545        -270.171          36.000                                                    25787953.227   109116870.163          39.000  
C32  24949581.984   129919311.170        2263.086          40.000                                                    24949574.944   105569224.197          44.000  
C33  23686376.883   123340819.560       -1596.099          45.000                                                    23686383.994   100224231.020          46.000  
C38  35842179.806   186638865.022        -423.418          50.000                                                    35842169.335   151659367.153          51.000  
C39  36818897.689   191725715.644         179.995          48.000                                                    36818889.612   155792865.342          49.000  
C41  22000681.158   114563518.631         554.639          51.000                                                    22000681.248    93092258.713          52.000  
> 2022 08 25 07 14 13.0000000  0 41                     
G02  23876259.571   125470421.806       -3272.554          39.000    23876267.970    97769649.594          27.000                                                  
G05  21042244.394   110578471.756       -1697.734          48.000    21042252.560    86165052.928          44.000                                                  
G13  21209494.089   111457041.998       -1915.869          48.000    21209501.201    86849664.650          39.000                                                  
G14  24344634.307   127932008.675         -75.127          37.000    24344643.616    99687279.729          20.000    24344643.223    95533643.554          30.000  
G15  20256350.612   106447665.322          83.159          50.000    20256358.599    82946254.437          56.000                                                  
G18  21602545.567   113521858.107         491.006          47.000    21602552.912    88458313.405          40.000    21602553.769    84773363.322          39.000  
G20  23359250.913   122753528.770       -3174.370          38.000    23359260.312    95652100.880          22.000                                                  
G23  23629937.055   124175586.640        3176.055          39.000    23629944.668    96760342.378          28.000    23629946.240    92728594.690          32.000  
G24  21101493.232   110889482.846        2698.330          48.000    21101504.096    86407403.871          53.000    21101499.736    82807097.610          39.000  
R03  20539203.164   109947222.587        -804.119          52.000    20539208.275    85515196.027          49.000  
R04  20762530.785   111182633.208        1510.979          52.000    20762536.253    86475677.739          50.000  
R13  20618992.444   110104033.134        -731.624          40.000    20618998.019    85636448.820          45.000  
R14  20949380.511   111671478.605        3334.869          51.000    20949387.855    86856037.387          48.000  
R18  22977717.949   122657069.319       -3990.920          43.000    22977727.009    95399137.339          40.000  
R19  21478137.570   114893569.774       -2077.906          38.000    21478143.485    89362040.781          44.000  
R20  23080460.060   123421190.041        1952.939          35.000    23080469.084    95994259.160          42.000  
E03  25179138.264   132317665.128        1228.614          49.000    25179134.065   107400743.575          48.000    25179144.072   100097498.609          50.000  
E05  23851697.813   125341494.649        -545.620          53.000    23851691.791   101738245.450          52.000    23851703.192    94820053.584          55.000  
E09  26900637.435   141364157.872       -1808.467          42.000    26900634.647   114743641.436          44.000    26900644.082   106941076.365          45.000  
E15  25363919.401   133287701.233         712.265          46.000    25363915.237   108189068.984          47.000    25363925.941   100831978.341          49.000  
E24  26098335.690   137147548.208        1492.949          44.000    26098332.081   111321070.768          45.000    26098340.497   103751363.279          47.000  
E25  27301611.770   143471421.148        2836.777          39.000    27301608.822   116454080.249          39.000    27301621.491   108534777.907          43.000  
E31  27443815.581   144218721.762        -672.842          39.000    27443812.151   117060654.425          38.000    27443823.355   109100530.899          42.000  
E36  27452020.179   144261865.661       -3159.170          39.000    27452019.857   117094819.777          39.000    27452030.918   109132369.524          40.000  
J02  37344191.338   196245737.480         427.944          39.000    37344201.309   152918767.739          43.000    37344199.397   146547154.371          33.000  
J03  37217842.139   195580768.905        -405.903          41.000    37217851.145   152400588.811          43.000    37217849.054   146050561.968          33.000  
C06  37471230.692   195123068.094         426.308          41.000    37471226.761   150881549.037          44.000    37471217.791   158553488.617          43.000  
C09  39185256.394   204047497.824         476.855          38.000    39185255.447   157782482.011          42.000    39185244.672   165805317.325          39.000  
C13  36283243.134   188936299.428         274.589          49.000    36283245.421   146097533.839          47.000    36283234.968   153526221.015          47.000  
C14  25548549.704   133038381.472       -2193.692          38.000    25548549.829   102873715.340          41.000    25548541.306   108104582.451          38.000  
C16  37279732.537   194125208.507         282.299          45.000    37279733.644   150109944.027          45.000    37279725.550   157742648.542          42.000  
C23  24383772.256   126973106.799        3083.437          43.000                                                    24383756.049   103175782.983          45.000  
C24  25085971.698   130629362.730       -2165.948          41.000                                                    25085962.799   106146904.691          42.000  
C25  22493025.169   117126474.132         846.503          50.000                                                    22493018.396    95175522.173          49.000  
